,acknowledged_at,address,category,closed_at,created_at,description,id,issue_id,lat,lng,reporter_id,reporter_name,reporter_role,shortened_url,status,summary,updated_at,int_issue_id,neighborhood
0,2015-03-30T08:53:02-04:00,5 Lincoln Street,Bins for Trash & Recycling,,2015-03-27T15:57:26-04:00,,1556565.0,5743,41.3049964979,-72.9230041504,0.0,An anonymous SeeClickFix user,Registered User,http://bit.ly/1FT373I,Acknowledged,Bins for Trash & Recycling,2015-03-31T11:44:10-04:00,5743,Downtown
1,,"1423 Quinnipiac Ave St Anthony 1 New Haven, CT",Bins for Trash & Recycling,,2015-03-17T20:05:04-04:00,Garbage eeverywhere,1537307.0,5743,41.32306,-72.870263,9690.0,domsimeone,Registered User,http://bit.ly/1BvDlKV,Open,garbage over flowing city dumpster,2015-03-17T20:05:04-04:00,5743,Quinnipiac
2,,"1-19 Academy Street New Haven, Connecticut",Bins for Trash & Recycling,,2015-03-13T19:31:11-04:00,"This bin has been full for 3 weeks and yet people keep throwing trash “at” it and allowing trash fall into the snow. All the stinkiness is presently preserved by the cold.
City: Could you please put this on your pick up list for one day soon? ",1530174.0,5743,41.3048278257,-72.9184088554,60168.0,Mahfouz,Registered User,http://bit.ly/1Fb63Xp,Open,Bins for Trash & Recycling,2015-03-14T11:20:16-04:00,5743,Wooster Square/Mill River
3,,"336 Munson Street New Haven, CT",Bins for Trash & Recycling,,2015-02-07T09:06:46-05:00,"I am a senior citizen and was very upset this morning(Saturday Feb 7, 2015. I wake up to the sound of the sanitation workers. Normal pickup day for my area is Tuesday mornings. Due to the snow storm we did not have normal pickup which is Tuesday mornings. This is definitely understandable. My trash was left on the curve all week until last night.. We brought it back in because people were passing by adding garbage which was mixed with anything. Without any notice from the city we were not given a notice that trash would be collected this morning. I listen faithfully where ever there is a call from the city and confirm by pressing one. What happened to notice of pickup for today. This was not handled properly and is very upsetting. And by the way I did rush to the door to call the workers,did they stop ? No. I believe one family in the block had trash out. Come on people..  ",1477758.0,5743,41.322696,-72.936588,0.0,Mary Watkins,Registered User,http://bit.ly/1Iok8oe,Open,Trash pickup,2015-02-07T09:06:46-05:00,5743,Dixwell
4,2015-01-30T16:23:56-05:00,"315 Newhall Street New Haven, Connecticut",Bins for Trash & Recycling,,2015-01-30T15:04:55-05:00,,1467720.0,5743,41.332332,-72.92717,6774.0,Department of Public Works,Verified Official,http://bit.ly/1tGgnnd,Acknowledged,Bins for Trash & Recycling,2015-01-30T16:23:56-05:00,5743,Newhallville
5,2015-01-23T14:49:10-05:00,"139 Saltonstall Ave New Haven, Connecticut",Bins for Trash & Recycling,,2015-01-23T13:30:58-05:00,,1454427.0,5743,41.3050939,-72.89992,6774.0,Department of Public Works,Verified Official,http://bit.ly/15m8Xdm,Acknowledged,Bins for Trash & Recycling,2015-01-23T14:49:10-05:00,5743,Fair Haven
6,2015-01-22T16:44:31-05:00,"202 Prospect St New Haven, Connecticut",Bins for Trash & Recycling,,2015-01-22T15:15:54-05:00,"The top is broke, allowing animals to get in very easy.

 ive called four times and nothing, can you help, please",1452958.0,5743,41.3172517,-72.9243615,281912.0,pjcaero1,Registered User,http://bit.ly/1Exy3Cx,Acknowledged,Bins for Trash & Recycling,2015-01-22T20:56:22-05:00,5743,Downtown
7,2015-01-22T14:30:43-05:00,"196 Fairmont Ave New Haven, Connecticut",Bins for Trash & Recycling,,2015-01-22T11:26:55-05:00,NEW HOME OWNER OF A 1 FAMILY HOME,1452621.0,5743,41.298521,-72.8942469,6774.0,Department of Public Works,Verified Official,http://bit.ly/1yNjglu,Acknowledged,Bins for Trash & Recycling,2015-01-22T14:30:43-05:00,5743,Annex
8,,"25-29 Wall Street New Haven, Connecticut",Bins for Trash & Recycling,,2015-01-22T11:09:33-05:00,test,1452604.0,5743,41.309083152,-72.922099575,2.0,Ben,Admin,http://bit.ly/1CkDq8W,Open,Bins for Trash & Recycling,2015-01-22T11:09:33-05:00,5743,Downtown
9,2015-01-20T08:06:24-05:00,"1552 Ella T Grasso Blvd New Haven, Ct",Bins for Trash & Recycling,,2015-01-18T15:02:17-05:00,,1445859.0,5743,41.3215660081,-72.9496939,162952.0,King of the Boulevard,Registered User,http://bit.ly/1KU3sUf,Acknowledged,Bins for Trash & Recycling,2015-01-20T08:06:24-05:00,5743,Beaver Hills
10,2015-01-14T13:06:28-05:00,"781 Dixwell Ave New Haven, Connecticut",Bins for Trash & Recycling,,2015-01-14T07:40:25-05:00,,1440863.0,5743,41.3349547,-72.9350076,6774.0,Department of Public Works,Verified Official,http://bit.ly/1wZo1VW,Acknowledged,Bins for Trash & Recycling,2015-01-14T13:06:28-05:00,5743,Newhallville
11,2015-01-15T08:24:02-05:00,"80 Barnett St.  New Haven, Connecticut",Bins for Trash & Recycling,,2015-01-13T17:03:08-05:00,Somehow we ended up with two trash bins and I can't figure out where the 2nd one belongs! Glad to return it to anybody who is missing one!,1440322.0,5743,41.325738,-72.965798,0.0,whitney,Registered User,http://bit.ly/1DVDtqK,Acknowledged,Bins for Trash & Recycling,2015-01-15T08:24:02-05:00,5743,Westville
12,2014-12-31T14:25:45-05:00,"350 Sherman Ave New Haven, Connecticut",Bins for Trash & Recycling,,2014-12-31T14:03:56-05:00,New Home owner needs 2 trash and 2 recycling toters!!,1422500.0,5743,41.318337,-72.941818,6774.0,Department of Public Works,Verified Official,http://bit.ly/14cSj08,Acknowledged,Trash & Recycling,2014-12-31T14:25:45-05:00,5743,Beaver Hills
13,2014-12-18T14:35:12-05:00," Kenny Drive New Haven, Connecticut",Bins for Trash & Recycling,,2014-12-18T07:30:44-05:00,"Last week on Thursday when the recycling folks came they damage the lid on recycling bin. It is ripped and I could not put it back together, I called left a message in a voice mail that same day wth all the information and my number and no one contact me. I figured today they would fix it and again came and no one fixed. They dumped the recycling and took the lid and threw it in the bin. I am a person who washes my bins and tries to take care of them. I would appreciate a new bin or someone to fix it. I do not appreciate looking at a broken lid that is thrown all over the place. ",1408069.0,5743,41.3245257,-72.8752409,0.0,An anonymous SeeClickFix user,Registered User,http://bit.ly/1GU2d2H,Acknowledged,Bins for Trash & Recycling,2014-12-18T14:35:12-05:00,5743,Quinnipiac
14,2014-12-15T09:47:15-05:00,"103 Cove Street New Haven, Connecticut",Bins for Trash & Recycling,,2014-12-12T10:20:53-05:00,"Voice message left at DPW. Three family home but only 1 brown and 1 blue toter.
3 family home",1400019.0,5743,41.2550919,-72.8967291,6774.0,Department of Public Works,Verified Official,http://bit.ly/1yIrk96,Acknowledged,Bins for Trash & Recycling,2014-12-15T09:47:15-05:00,5743,East Shore
15,2014-12-15T09:33:12-05:00,"44 Kenny Drive New Haven, Connecticut",Bins for Trash & Recycling,,2014-12-12T10:19:21-05:00,Toter is damaged at this address. Please fix or replace.,1400016.0,5743,41.324629,-72.876335,6774.0,Department of Public Works,Verified Official,http://bit.ly/1yIqU2u,Acknowledged,Bins for Trash & Recycling,2014-12-15T09:33:12-05:00,5743,Quinnipiac
16,2015-01-12T09:01:12-05:00,"93 Hazel Street New Haven, Connecticut",Bins for Trash & Recycling,,2014-12-09T16:08:24-05:00,Trash overload because bin was never emptied last week so I put the rest in recycle bin. This morning recycle people poured all that trash onto front lawn and I had to pick up last weeks dinner,1395713.0,5743,41.3158611514,-72.9512749103,0.0,An anonymous SeeClickFix user,Registered User,http://bit.ly/1vAWTL3,Acknowledged,Bins for Trash & Recycling,2015-01-12T09:01:12-05:00,5743,Edgewood
17,2014-12-31T14:56:31-05:00,"1638 Chapel Street New Haven, Connecticut",Bins for Trash & Recycling,,2014-12-02T10:12:20-05:00,Needs 2 brown toter new owner,1384573.0,5743,41.312592,-72.951437,6774.0,Department of Public Works,Verified Official,http://bit.ly/1tzCPc6,Acknowledged,Trash & Recycling,2014-12-31T14:56:31-05:00,5743,West River
18,2015-01-12T09:06:57-05:00,"16 Shepard Street New Haven, Connecticut",Bins for Trash & Recycling,,2014-12-02T10:03:40-05:00,New tenant needs 1 brown and 1 blue,1384563.0,5743,41.331815,-72.929426,6774.0,Department of Public Works,Verified Official,http://bit.ly/1tzAsWB,Acknowledged,Trash & Recycling,2015-01-12T09:06:57-05:00,5743,Newhallville
19,2015-01-12T09:07:15-05:00,"1030 Townsend Ave New Haven, Connecticut",Bins for Trash & Recycling,,2014-12-02T10:00:38-05:00,Needs a brown toter new resident,1384556.0,5743,41.284974,-72.8938639,6774.0,Department of Public Works,Verified Official,http://bit.ly/1tzzQAz,Acknowledged,Trash & Recycling,2015-01-12T09:07:15-05:00,5743,Annex
20,2014-11-12T09:22:23-05:00,"614 Chapel St. New Haven, Connecticut",Bins for Trash & Recycling,,2014-11-10T20:26:54-05:00,"My trash bin was stolen over the last week.
(I had already reported my recycling bin stolen 2 weeks ago).

Is there any way to speed the delivery of new bins??
OR is there an interim way to get my garbage/recycling picked up?
I have NO way at present to leave out either trash OR recycling?",1356928.0,5743,41.303569,-72.919703,0.0,An anonymous SeeClickFix user,Registered User,http://bit.ly/1wcLcLe,Acknowledged,Bins for Trash & Recycling,2014-11-12T09:41:25-05:00,5743,Wooster Square/Mill River
21,2014-11-10T10:58:22-05:00,"74 Houston Street New Haven, Connecticut",Bins for Trash & Recycling,,2014-11-10T10:14:52-05:00,,1356051.0,5743,41.306728,-72.893573,6774.0,Department of Public Works,Verified Official,http://bit.ly/11bewKx,Acknowledged,Bins for Trash & Recycling,2014-11-10T10:58:22-05:00,5743,Fair Haven
22,2014-10-16T09:57:55-04:00,"614 Chapel St. New Haven, Connecticut",Bins for Trash & Recycling,,2014-10-15T16:41:59-04:00,"My blue recycling bin (kept next to my house, within view of the street, was stolen during the last week. (I think I was originally issued two, and one vanished quite a while back.)
Please help me to replace it or them. ",1323531.0,5743,41.303569,-72.919703,0.0,An anonymous SeeClickFix user,Registered User,http://bit.ly/1w3EqKj,Acknowledged,Bins for Trash & Recycling,2014-10-16T09:57:55-04:00,5743,Wooster Square/Mill River
23,2014-10-03T15:26:40-04:00,"58 Hallock Street New Haven, Connecticut",Bins for Trash & Recycling,,2014-10-03T09:41:57-04:00,"The recycle bin has been wheel less a month. It gets left on the sidewalk all week and the adjacent private driveway almost daily. Last night, someone put it in the bed of a neighbor's pickup truck. Property Manager has called repeatedly about this issue. Issue escalating with neighbors and property owner is too rude to be helpful.",1308364.0,5743,41.299189,-72.937938,0.0,An anonymous SeeClickFix user,Registered User,http://bit.ly/1pLEMzp,Acknowledged,Bins for Trash & Recycling,2014-10-07T20:12:15-04:00,5743,Hill
24,,"437a Eastern Street New Haven, Connecticut",Bins for Trash & Recycling,,2014-09-22T14:27:14-04:00,Always trash in front of main entrance on Eastern Street wherebus stop is please put some trash cans there Thank you.,1293596.0,5743,41.3184449,-72.870852,602031.0,ktskny,Registered User,http://bit.ly/1qnxfqy,Open,Bins for Trash & Recycling,2014-09-22T14:27:14-04:00,5743,Fair Haven Heights
25,2014-10-09T09:24:41-04:00,"249 Peck Street New Haven, Connecticut",Bins for Trash & Recycling,,2014-09-17T08:46:31-04:00,Need 3 brown toters,1285541.0,5743,41.3161064,-72.8970153,0.0,An anonymous SeeClickFix user,Registered User,http://bit.ly/1mavWjQ,Acknowledged,Bins for Trash & Recycling,2014-10-09T09:24:41-04:00,5743,Fair Haven
26,2014-09-17T11:36:50-04:00,"193 Putnam Street New Haven, Connecticut",Bins for Trash & Recycling,,2014-09-17T08:37:53-04:00,,1285523.0,5743,41.295702,-72.934816,6774.0,Department of Public Works,Verified Official,http://bit.ly/1mauSfE,Acknowledged,Bins for Trash & Recycling,2014-09-17T11:36:50-04:00,5743,Hill
27,,"61judith Terrace New Haven, Connecticut",Bins for Trash & Recycling,,2014-09-04T14:14:02-04:00,,1270345.0,5743,41.295873,-72.890217,6774.0,Department of Public Works,Verified Official,http://bit.ly/1t4Ksrm,Open,Bins for Trash & Recycling,2014-09-04T14:14:02-04:00,5743,Annex
28,,"143 Frank Street New Haven, Connecticut",Bins for Trash & Recycling,,2014-09-04T10:45:54-04:00,"Landlord of property, doing work on house and noticed that brown toters weren't there.",1270015.0,5743,41.294475,-72.941565,6774.0,Department of Public Works,Verified Official,http://bit.ly/1t3XlSH,Open,Bins for Trash & Recycling,2014-09-04T14:15:47-04:00,5743,Hill
29,,"4 Lewis Street New Haven, Connecticut",Bins for Trash & Recycling,,2014-09-03T15:10:46-04:00,Need bins for trash collection.,1268923.0,5743,41.3121664,-72.8891078,6774.0,Department of Public Works,Verified Official,http://bit.ly/1r2Cxsd,Open,Bins for Trash & Recycling,2014-09-03T16:09:34-04:00,5743,Fair Haven
30,2014-08-28T08:31:53-04:00,"31 Edwards Street New Haven, CT 06511, USA",Bins for Trash & Recycling,,2014-08-28T07:22:06-04:00,,1260197.0,5743,41.3162546026,-72.9105787276,115499.0,Julie,Registered User,http://bit.ly/1wHoXD3,Acknowledged,Bins for Trash & Recycling,2014-09-12T09:58:14-04:00,5743,East Rock
31,2014-08-28T09:18:48-04:00,"47 Anthony Street New Haven, CT 06515, USA",Bins for Trash & Recycling,,2014-08-26T21:41:54-04:00,The city can take back the other blue bin.,1257950.0,5743,41.3294830322,-72.9751358032,469171.0,Sam D,Registered User,http://bit.ly/VMG5qi,Acknowledged,Bins for Trash & Recycling,2014-08-28T09:18:48-04:00,5743,Amity
32,2014-08-28T10:03:16-04:00,"145 Lawncrest Road New Haven, Connecticut",Bins for Trash & Recycling,,2014-08-22T09:52:41-04:00,Request for Trash and Recycling bin,1250929.0,5743,41.3311213,-72.982691,6774.0,Department of Public Works,Verified Official,http://bit.ly/1pQAjjp,Acknowledged,Bins for Trash & Recycling,2014-08-28T10:03:16-04:00,5743,Amity
33,2014-08-28T10:13:35-04:00,"35 County Street New Haven, Connecticut",Bins for Trash & Recycling,,2014-08-22T09:28:31-04:00,Already reported with case number. Requesting that recycling be picked up next round. trash day regularly on Tuesday. ,1250897.0,5743,41.316822,-72.939328,6774.0,Department of Public Works,Verified Official,http://bit.ly/1pQw6fi,Acknowledged,Bins for Trash & Recycling,2014-08-28T10:13:35-04:00,5743,Dixwell
34,,"343 Townsend Ave New Haven, Connecticut",Bins for Trash & Recycling,,2014-08-19T01:39:39-04:00,Trash can down in the water at access point steps Pardee Park this,1245095.0,5743,41.2662068,-72.8963967,10364.0,Peter in New Haven,Registered User,http://bit.ly/1BwbkGT,Open,Tras can in the water,2014-08-19T08:02:48-04:00,5743,East Shore
35,,"Seawall Townsend Avenue New Haven, Connecticut",Bins for Trash & Recycling,,2014-08-15T08:21:22-04:00,"Once again, Garbage bins left in driveways and in the street along the Seawall where the road is very narrow. These bins do not start out in driveways or in the street, but this crew is too lazy to move the bins 3 feet so they will not obstruct traffic or block driveways. Please retrain your crew as they appear to have short memories as to how to properly do their job. Getting tired of reporting this issue.",1240071.0,5743,41.2637479797,-72.8958152698,0.0,An anonymous SeeClickFix user,Registered User,http://bit.ly/1sIQZeZ,Open,Multiple Garbage bins left in driveways and in the street,2014-08-15T11:38:38-04:00,5743,East Shore
36,2014-08-01T16:01:40-04:00,"338 Poplar Street New Haven, Connecticut",Bins for Trash & Recycling,,2014-08-01T15:15:55-04:00,Please replace 2 brown trash bins which tenant reported have been stolen.,1217827.0,5743,41.3110039,-72.897768,0.0,Douglas Geddes,Registered User,http://bit.ly/1uQ0FWx,Acknowledged,Bins for Trash & Recycling,2014-08-01T16:01:40-04:00,5743,Fair Haven
37,2014-07-24T13:27:29-04:00,"892 Townsend Ave New Haven, Connecticut",Bins for Trash & Recycling,2014-09-04T16:28:51-04:00,2014-07-24T10:25:33-04:00,It has been over a year when requested a trash bin due to an accident,1202669.0,5743,41.2811359,-72.89518,6774.0,Department of Public Works,Verified Official,http://bit.ly/1rcVU3x,Open,Bins for Trash & Recycling,2014-09-04T20:05:00-04:00,5743,Annex
38,2014-08-28T10:14:51-04:00,"28 West Rock New Haven, Connecticut",Bins for Trash & Recycling,,2014-07-24T07:45:39-04:00,New Tenant  request for recycling bin,1202514.0,5743,41.316158,-72.962342,6774.0,Department of Public Works,Verified Official,http://bit.ly/1Aaz96j,Acknowledged,Trash & Recycling,2014-08-28T10:14:51-04:00,5743,Westville
39,2014-08-28T10:00:55-04:00,"Kensington Street new haven, CT",Bins for Trash & Recycling,,2014-07-13T16:03:29-04:00,"I have two blue bins stolen at my property. 

Please advise what to do?

My tenants need trash bins In Order to recycling. 

Not sure how to control this issue.

Thanks

",1183105.0,5743,41.3120958,-72.9394049,0.0,new haven,Registered User,http://bit.ly/1rjaSpD,Acknowledged,stolen blue recycling bins - two quantity,2014-08-28T10:00:55-04:00,5743,Dwight
40,2014-07-11T16:21:37-04:00,"162 Gilbert Ave New Haven, Connecticut",Bins for Trash & Recycling,,2014-07-11T15:48:32-04:00,Trash Toter went missing after pick up two weeks ago.,1180190.0,5743,41.308783,-72.947036,6774.0,Department of Public Works,Verified Official,http://bit.ly/W4z8BC,Acknowledged,Bins for Trash & Recycling,2014-07-11T16:21:37-04:00,5743,West River
41,2014-07-11T16:28:49-04:00,"792 Elm Street New Haven, Connecticut",Bins for Trash & Recycling,,2014-07-11T13:32:49-04:00,,1180005.0,5743,41.31662,-72.948041,6774.0,Department of Public Works,Verified Official,http://bit.ly/1tw1T8X,Acknowledged,Bins for Trash & Recycling,2014-09-03T12:29:15-04:00,5743,Edgewood
42,,"9 Pitkin Street Tunnel New Haven, CT 06511, USA",Graffiti,,2015-04-10T09:53:42-04:00,https://instagram.com/p/1S_imFylNZ #instagram,1583111.0,122,41.305699905,-72.922933345,1011161.0,Hashtag SeeClickFix,Admin,http://bit.ly/1IQGR88,Open,#seeclickfix #graffiti,2015-04-10T10:56:38-04:00,122,Downtown
43,,"Near 343 Crown Street New Haven, Connecticut",Graffiti,,2015-04-04T16:20:16-04:00,"Someone wrote ""100% lied"" on the mural of Anne Frank near Seoul / Partners. This piece of street art is one of my favorite parts of New Haven and it would be great to get the unfortunate message cleaned off. ",1571567.0,122,41.3078411,-72.9332579,0.0,An anonymous SeeClickFix user,Registered User,http://bit.ly/1D4Kasp,Open,Anti-Semitic Graffiti ,2015-04-06T09:16:42-04:00,122,Downtown
44,2015-04-01T11:53:41-04:00,"1609 Chapel Street New Haven, CT 06511, USA",Graffiti,,2015-03-31T18:03:53-04:00,,1564769.0,122,41.3126487732,-72.9503479004,0.0,An anonymous SeeClickFix user,Registered User,http://bit.ly/19GoXZR,Acknowledged,Graffiti,2015-04-01T11:53:41-04:00,122,Edgewood
45,,"1595 Chapel Street New Haven, CT 06511, USA",Graffiti,,2015-03-31T18:02:07-04:00,,1564765.0,122,41.3125648581,-72.9495239258,2.0,Ben,Admin,http://bit.ly/19Gow1M,Open,Graffiti,2015-04-01T06:37:25-04:00,122,Edgewood
46,,"Yale University 143 Elm Street, New Haven, CT 06511, USA",Graffiti,,2015-03-31T12:24:28-04:00,,1564074.0,122,41.3089408875,-72.9255981445,2.0,Ben,Admin,http://bit.ly/1xTtsvR,Open,Graffiti,2015-03-31T12:39:19-04:00,122,Downtown
47,,"Yale University 156 Elm Street, New Haven, CT 06511, USA",Graffiti,,2015-03-31T12:24:25-04:00,,1564072.0,122,41.308971405,-72.9259643555,2.0,Ben,Admin,http://bit.ly/1xTtsfm,Open,Graffiti,2015-03-31T12:39:04-04:00,122,Downtown
48,,"Yale University 1123-1145 Chapel Street, New Haven, CT 06511, USA",Graffiti,,2015-03-31T08:09:37-04:00,,1563412.0,122,41.3086166382,-72.9320526123,2.0,Ben,Admin,http://bit.ly/1xvcYtr,Open,Graffiti,2015-03-31T08:12:48-04:00,122,Downtown
49,,"Yale University 1150 Chapel Street, New Haven, CT 06511, USA",Graffiti,,2015-03-31T08:09:21-04:00,,1563411.0,122,41.3085136414,-72.932472229,2.0,Ben,Admin,http://bit.ly/1xvcVOr,Open,Graffiti,2015-03-31T08:09:21-04:00,122,Downtown
50,,"Yale University 1142-1144 Chapel Street, New Haven, CT 06511, USA",Graffiti,,2015-03-31T08:09:02-04:00,,1563410.0,122,41.3085784912,-72.9322891235,2.0,Ben,Admin,http://bit.ly/1xvcWBH,Open,Graffiti,2015-03-31T08:09:02-04:00,122,Downtown
51,,"Yale University 1147 Chapel Street, New Haven, CT 06511, USA",Graffiti,,2015-03-31T08:08:51-04:00,,1563409.0,122,41.3086433411,-72.9321899414,2.0,Ben,Admin,http://bit.ly/1xvcV0E,Open,Graffiti,2015-03-31T08:12:27-04:00,122,Downtown
52,,"Yale University 1157 Chapel Street, New Haven, CT 06511, USA",Graffiti,,2015-03-31T08:08:11-04:00,,1563407.0,122,41.3088226318,-72.9330444336,2.0,Ben,Admin,http://bit.ly/1xvcROo,Open,Graffiti,2015-03-31T08:08:11-04:00,122,Downtown
53,,"186-196 Park Street New Haven, CT 06511, USA",Graffiti,,2015-03-31T08:07:32-04:00,,1563405.0,122,41.3089599609,-72.9334869385,2.0,Ben,Admin,http://bit.ly/1xvcMu6,Open,Graffiti,2015-04-02T12:55:58-04:00,122,Downtown
54,,"1183 Chapel Street New Haven, CT 06511, USA",Graffiti,,2015-03-31T08:06:46-04:00,,1563401.0,122,41.3090209961,-72.9338760376,2.0,Ben,Admin,http://bit.ly/1xvcF1G,Open,Graffiti,2015-03-31T08:06:46-04:00,122,Downtown
55,,"1187 Chapel Street New Haven, CT 06511, USA",Graffiti,,2015-03-31T08:06:23-04:00,,1563400.0,122,41.3090286255,-72.9340133667,2.0,Ben,Admin,http://bit.ly/1xvcCD1,Open,Graffiti,2015-03-31T08:06:23-04:00,122,Downtown
56,,"1214-1220 Chapel Street New Haven, CT 06511, USA",Graffiti,,2015-03-31T08:06:01-04:00,,1563399.0,122,41.3091850281,-72.9349594116,2.0,Ben,Admin,http://bit.ly/1xvcAuY,Open,Graffiti,2015-03-31T08:06:01-04:00,122,Downtown
57,,"1214-1220 Chapel Street New Haven, CT 06511, USA",Graffiti,,2015-03-31T08:05:26-04:00,,1563398.0,122,41.3092041016,-72.9350738525,2.0,Ben,Admin,http://bit.ly/1xvczai,Open,Graffiti,2015-03-31T08:05:26-04:00,122,Downtown
58,,"68 Howe Street New Haven, CT 06511, USA",Graffiti,,2015-03-31T08:03:50-04:00,,1563396.0,122,41.3097038269,-72.9352111816,2.0,Ben,Admin,http://bit.ly/1xvcoMe,Open,Graffiti,2015-03-31T08:03:50-04:00,122,Downtown
59,2015-03-26T10:25:24-04:00,"203 Dwight Street New Haven, CT 06511, USA",Graffiti,,2015-03-25T21:30:07-04:00,https://instagram.com/p/0rCcf1ylK- #instagram,1553033.0,122,41.311006594,-72.935831527,1011161.0,Hashtag SeeClickFix,Admin,http://bit.ly/1CQf9si,Acknowledged,#seeclickfix #graffiti,2015-04-01T15:34:42-04:00,122,Dwight
60,,"721 Chapel Street New Haven, CT 06510, USA",Graffiti,,2015-03-24T11:44:09-04:00,https://instagram.com/p/0V0cDoylH3 #instagram,1550299.0,122,41.304742396,-72.922250801,1011161.0,Hashtag SeeClickFix,Admin,http://bit.ly/1ENyf1k,Open,#graffiti #seeclickfix,2015-03-25T22:21:36-04:00,122,Downtown
61,,"1229 Chapel Street New Haven, CT 06511, USA",Graffiti,,2015-03-23T17:52:09-04:00,This tag is all over Chapel,1548368.0,122,41.3093070984,-72.9354705811,0.0,An anonymous SeeClickFix user,Registered User,http://bit.ly/1GMCNFn,Open,Graffiti,2015-03-24T11:30:06-04:00,122,Downtown
62,2015-03-13T09:39:33-04:00,"6-26 Jefferson Street New Haven, CT 06511, USA",Graffiti,,2015-03-12T22:07:57-04:00,Says aoke,1528557.0,122,41.3078622199,-72.9159426514,0.0,An anonymous SeeClickFix user,Registered User,http://bit.ly/1E9M33m,Acknowledged,Graffiti,2015-03-16T10:40:46-04:00,122,Wooster Square/Mill River
63,2015-03-16T10:42:46-04:00,"59 Fair Street New Haven, CT 06511, USA",Graffiti,,2015-03-12T13:22:00-04:00,Graffiti on bridge. ,1527500.0,122,41.3027015138,-72.9234152344,0.0,benhv,Registered User,http://bit.ly/1wzrpw5,Acknowledged,Graffiti,2015-03-16T10:42:46-04:00,122,Downtown
64,,"802 Grand Ave New Haven, Connecticut",Graffiti,2015-04-05T23:26:26-04:00,2015-03-12T13:01:31-04:00,Graffiti on wall - facing street frontage but on private property (Project More),1527470.0,122,41.307648616,-72.9162309319,8671.0,abgoode,Registered User,http://bit.ly/1MuPfv8,Closed,Graffiti,2015-04-05T23:26:26-04:00,122,Wooster Square/Mill River
65,2015-03-16T10:56:22-04:00,"545-597 East Street New Haven, CT 06511, USA",Graffiti,,2015-03-05T07:30:39-05:00,Graffiti all over stay at underpass.,1513750.0,122,41.3153457681,-72.9091110229,0.0,An anonymous SeeClickFix user,Registered User,http://bit.ly/1wXKfrw,Acknowledged,Graffiti,2015-03-16T10:56:22-04:00,122,Wooster Square/Mill River
66,2015-03-02T11:39:04-05:00,"187-199 Humphrey Street New Haven, CT 06511, USA",Graffiti,,2015-02-28T10:50:42-05:00,"The highway underpass has been vandalized. 

The style of graffiti on under 91 has driven the vandalism back up all over the neighborhood. 

This Summer a mural without tags should be painted over the under 91 project. 

Please fix these tags quickly before it spreads more LCI.",1506647.0,122,41.3134613037,-72.9104690552,0.0,An anonymous SeeClickFix user,Registered User,http://bit.ly/1FIr1ef,Acknowledged,Graffiti,2015-03-02T11:39:04-05:00,122,Wooster Square/Mill River
67,,"292-308 Edgewood Avenue New Haven, CT 06511, USA",Graffiti,,2015-01-25T12:23:27-05:00,Please remove the HD tag that is here.,1457165.0,122,41.3132514954,-72.9439239502,7225.0,benhv,Verified Official,http://bit.ly/15HVAoS,Open,Graffiti,2015-01-25T16:26:51-05:00,122,Edgewood
68,2015-01-06T11:10:56-05:00,"50-74 Mead Street New Haven, CT 06511, USA",Graffiti,,2015-01-04T16:38:21-05:00,On u-verse box,1426600.0,122,41.3099098206,-72.9510879517,509.0,John Fitzpatrick,Registered User,http://bit.ly/1Acb6pD,Acknowledged,Graffiti,2015-01-06T11:10:56-05:00,122,West River
69,2015-01-06T11:12:02-05:00,"831-837 Chapel Street New Haven, CT 06510, USA",Graffiti,,2015-01-04T13:27:33-05:00,Side of  PCX. Got tagged,1426427.0,122,41.3056793213,-72.9248886108,37615.0,Chapel Watcher,Registered User,http://bit.ly/14aeCmt,Acknowledged,Graffiti,2015-01-12T15:39:51-05:00,122,Downtown
70,2015-01-06T11:12:23-05:00,"33-43 Humphrey Street New Haven, Connecticut",Graffiti,,2015-01-03T14:33:39-05:00,"Not particularly interesting or inspired graffiti on the walls of the railroad underpass between Humphrey and Lombard.  The architecture of the underpass, though, with dozens of arches and a  sort of catacomb ambiance, might work well for a talented graffiti artist looking for a large and unconventional canvas. ",1425666.0,122,41.3138746466,-72.9053890492,39920.0,Andrushka,Registered User,http://bit.ly/1D3Ripv,Acknowledged,Graffiti under the bridge - Humphrey/Lombard,2015-01-06T11:12:23-05:00,122,Wooster Square/Mill River
71,2015-01-06T11:15:18-05:00,"440 Front Street New Haven, Connecticut",Graffiti,,2015-01-03T14:26:39-05:00,"Graffiti making a come back at the I 91 underpass at Front Street and Middletown Ave,",1425663.0,122,41.3200695927,-72.8901047966,39920.0,Andrushka,Registered User,http://bit.ly/1D3Q4uh,Acknowledged,Graffiti under I 91 at Front Street,2015-01-06T11:15:19-05:00,122,Fair Haven
72,2015-01-06T11:15:38-05:00,"122-142 River Street New Haven, Connecticut",Graffiti,,2015-01-02T09:15:49-05:00,"""Born to Lose"" sprayed on abandoned city-owned buildings and fence across the street.  Please remove before more tagging happens.",1424461.0,122,41.303035331,-72.8994735421,0.0,An anonymous SeeClickFix user,Registered User,http://bit.ly/1tHiE1Y,Acknowledged,Graffiti,2015-01-06T11:15:38-05:00,122,Fair Haven
73,2014-11-20T11:03:05-05:00,"731-753 State Street New Haven, CT 06511, USA",Graffiti,,2014-11-18T13:19:08-05:00,Two huge tags still on underpass. ,1367372.0,122,41.3112678528,-72.9164047241,0.0,An anonymous SeeClickFix user,Registered User,http://bit.ly/1utzb65,Acknowledged,Graffiti,2014-11-20T11:03:05-05:00,122,Wooster Square/Mill River
74,2014-03-25T10:30:14-04:00,"140-182 Orange St New Haven, Connecticut",Graffiti,,2014-03-24T22:04:30-04:00,,997934.0,122,41.3059425523,-72.9238789156,135939.0,a_non_mouse,Verified Official,http://bit.ly/1gTEnWH,Acknowledged,Graffiti ,2014-12-31T09:10:29-05:00,122,Downtown
75,2013-07-12T16:23:07-04:00,"72-74 Wall Street New Haven, Connecticut",Graffiti,,2013-05-23T16:57:41-04:00,"The New Haven Register ""Honor Box"" on the southwest corner of Wall Street and Temple Street has been heavily-graffitied. ",536411.0,122,41.3100021891,-72.924580412,0.0,.,Registered User,http://bit.ly/W5o1RF,Acknowledged,"Heavy Graffiti on New Haven Register ""Honor Box""",2014-12-29T11:23:05-05:00,122,Downtown
76,2013-05-20T08:59:10-04:00,"Elm St And Sherman Ave New Haven, CT 06511, USA",Graffiti,,2013-05-20T01:03:01-04:00,"""Grape"" gang graffiti on what looks like the signal box on NE corner of Elm and Sherman. ",528871.0,122,41.3152352825,-72.9428237305,9845.0,Rob Smuts,Registered User,http://bit.ly/160yhow,Acknowledged,Graffiti,2013-08-16T14:20:41-04:00,122,Dwight
77,2013-04-09T08:49:12-04:00,"Elm And Hobart  New Haven, CT",Graffiti,,2013-04-08T17:43:21-04:00,nm,458449.0,122,41.3184236,-72.952202,20825.0,BJG,Registered User,http://bit.ly/12CcWMB,Acknowledged,"Sneakers on wires, graffiti on signs",2014-09-23T17:17:21-04:00,122,Edgewood
78,2012-10-19T14:26:25-04:00,"27 Eld St New Haven, CT 06511, USA",Graffiti,,2012-08-28T09:15:59-04:00,There's a destefano head spray painted on the sidewalk that says Yale's @#$% and a sticker next to it that reads 'this is offensive towards women.',225956.0,122,41.3134651184,-72.9167251587,7225.0,benhv,Verified Official,http://bit.ly/MXwBSQ,Acknowledged,Graffiti,2013-08-16T14:24:46-04:00,122,Downtown
79,2013-11-04T11:09:54-05:00,"243-339 State St New Haven, CT 06510, USA",Graffiti,,2012-08-28T08:37:27-04:00,There are tags on the light pole,225909.0,122,41.3039573775,-72.9233407974,7225.0,benhv,Verified Official,http://bit.ly/OpRDWB,Acknowledged,Graffiti,2014-11-06T09:52:08-05:00,122,Downtown
80,2012-08-13T12:22:01-04:00,"996 State St New Haven, CT 06511, USA",Graffiti,,2012-08-09T19:32:40-04:00,These 'yale's @#$%' tags have been popping up all over State Street. Like the Mayor's opinions or not these are just mean and kids don't need to be reading the word '@#$%' all over the public space. Agree? Disagree?,218072.0,122,41.3159652257,-72.9094684124,7225.0,benhv,Verified Official,http://bit.ly/REhP50,Acknowledged,Graffiti,2012-08-13T12:25:02-04:00,122,East Rock
81,2012-04-30T09:22:35-04:00,"534 State St New Haven, CT 06511, USA",Graffiti,,2012-04-30T09:01:47-04:00,Tag on sill of yellow building.,179403.0,122,41.3079833984,-72.9206466675,2.0,Ben,Admin,http://bit.ly/Jq5jiS,Acknowledged,Graffiti,2013-08-16T14:40:53-04:00,122,Downtown
82,2012-10-19T09:58:06-04:00,"953 Grand Ave New Haven, CT 06511, USA",Graffiti,,2012-04-01T15:34:49-04:00,Graffiti on the new Grand Avenue bridge. Clean up before it encourages more! ,170497.0,122,41.3071784973,-72.9205169678,13571.0,Pedro Soto,Registered User,http://bit.ly/Hd2myr,Acknowledged,Graffiti,2013-08-16T14:40:37-04:00,122,Downtown
83,2011-08-31T15:14:34-04:00,"76 Orange St New Haven, CT 06510, USA",Graffiti,,2011-07-16T17:10:55-04:00,Cluefest polyorchid,113425.0,122,41.304655025,-72.9249379,0.0,Keith Basile,Registered User,http://bit.ly/qNDgHU,Acknowledged,Graffiti,2011-08-31T15:14:34-04:00,122,Downtown
84,,"3 Vernon Street New Haven, Connecticut",Hangers,,2015-04-09T12:11:18-04:00,"This is a liability issue.  Across the street from 3 Vernon Street, there's a detached, large black object and a long thick black cable, which have become detached from a telephone pole.  Both the object and the cable are being held up by thin tree branches.  If the object falls, it could hit someone walking below it.  Thank you.  ",1580755.0,6215,41.3011838,-72.9365226,983991.0,Deep potholes.,Registered User,http://bit.ly/1Czt15b,Open,Dangling cable,2015-04-09T15:48:01-04:00,6215,Hill
85,,"903 Elm New Haven, Connecticut",Hangers,,2015-04-06T22:40:28-04:00,Touching wires in street too,1574458.0,6215,41.318416,-72.95134,0.0,An anonymous SeeClickFix user,Registered User,http://bit.ly/1F8Q0v6,Open,Hangers,2015-04-07T05:38:15-04:00,6215,Edgewood
86,2015-04-07T07:22:10-04:00,"1771 Ella T Grasso Blvd New Haven, CT",Hangers,2015-04-08T10:39:13-04:00,2015-04-04T18:21:27-04:00,branch haning in tree oer walk and roaodway - dangerous in windy conditions,1571671.0,6215,41.326967,-72.946057,0.0,Kathy Stephens,Registered User,http://bit.ly/1CpCkob,Closed,hanger in tree - dangerous in windy condition,2015-04-08T10:39:13-04:00,6215,Beaver Hills
87,2015-03-27T10:02:51-04:00,"1647 Ella Grasso Blvd. New Haven, Connecticut",Hangers,2015-04-07T07:24:02-04:00,2015-03-26T14:51:03-04:00,,1554406.0,6215,41.323977,-72.947819,62898.0,Parks Department,Verified Official,http://bit.ly/1OB8xm8,Closed,Hangers,2015-04-07T07:24:02-04:00,6215,Beaver Hills
88,,"Lloyd Street Between Grand Ave And Woosley St New Haven, Connecticut",Hangers,2015-04-06T14:44:52-04:00,2015-03-23T14:16:21-04:00,Black electrical wires are hanging from air down into street and sidewalk. ,1547917.0,6215,41.308274,-72.9278835,996822.0,Lexii1169,Registered User,http://bit.ly/1CKCOdP,Closed,Hanging Wires,2015-04-06T14:44:53-04:00,6215,Downtown
89,,"East Rock Park Road New Haven, CT 06511, USA",Health Complaints,,2015-04-10T16:01:57-04:00,used syringes coming from drainage,1583954.0,5185,41.3312110901,-72.9106216431,395705.0,Matt G,Registered User,http://bit.ly/1CAQSBF,Open,Health Complaints,2015-04-10T19:58:47-04:00,5185,East Rock
90,,"18 Girard Ave New Haven, Connecticut",Health Complaints,,2015-04-08T09:37:06-04:00,Content blocked by rejections,1577793.0,5185,41.270072,-72.896143,0.0,An anonymous SeeClickFix user,Registered User,http://bit.ly/1PjtxhR,Open,Content blocked by rejections,2015-04-10T18:49:23-04:00,5185,East Shore
91,,"10 Garden Street New Haven, CT 06511, USA",Health Complaints,2015-04-07T11:28:22-04:00,2015-04-06T09:38:31-04:00,Graphic - Family cat in road,1573049.0,5185,41.3122177124,-72.9378128052,0.0,An anonymous SeeClickFix user,Registered User,http://bit.ly/1FvLmoh,Closed,Health Complaints,2015-04-07T11:28:22-04:00,5185,Dwight
92,,"18 Judson Ave New Haven, CT",Health Complaints,,2015-03-23T19:07:58-04:00,"MASSIVE amount of dog fecies.. Takes up all sidewalk,grass and all the way to the curb. You can no longer walk without stepping in it. I take my kids to the bus and have to walk in the street because its impassible. Absolutely disgusting, please have people clean up after their dogs! Extending from 16-26 Judson avenue.. Neighbors walk their dogs and don't clean up after them. ",1548474.0,5185,41.3082594,-72.9490044,0.0,sickoftrying,Registered User,http://bit.ly/1GMS4Gi,Open,Dog fecies,2015-03-23T19:07:58-04:00,5185,West River
93,,"Hubinger St New Haven, Connecticut",Health Complaints,2015-04-07T11:30:17-04:00,2015-03-15T10:48:28-04:00,Smell from local dog kennel is unbearable. Dog kennel is located behind 116 Hubinger. You can smell it from a block away.,1531371.0,5185,41.3191691,-72.954405,0.0,An anonymous SeeClickFix user,Registered User,http://bit.ly/1HU7t8y,Closed,Health Complaints,2015-04-07T11:30:17-04:00,5185,Edgewood
94,,"1104 Chapel Street (Harvest Restaurant) New Haven, Connecticut",Health Complaints,,2015-01-10T15:04:39-05:00,The outdoor music from Harvest Restaurant is a continual annoyance from when they open around noon for lunch through the evening. ,1435827.0,5185,41.308274,-72.9278835,0.0,An anonymous SeeClickFix user,Registered User,http://bit.ly/14ggeuE,Open,Loud music from Harvest Restaurant,2015-01-12T15:33:51-05:00,5185,Downtown
95,,"92-106 Livingston Street New Haven, CT 06511, USA",Health Complaints,2015-04-07T11:33:17-04:00,2015-01-10T12:47:42-05:00,Dead bird on curb. ,1435668.0,5185,41.3218574524,-72.9150009155,37007.0,ulmus.americana,Registered User,http://bit.ly/1BSUbp5,Closed,Health Complaints,2015-04-07T11:33:17-04:00,5185,East Rock
96,,"536 Quinnipiac Avenue New Haven, CT 06513, USA",Health Complaints,,2015-01-10T12:43:20-05:00,"Strong rotten smell coming from the Quinnipiac River in the vinicity of the Oyster company. South of the East Grand Bridge.

Smell blankets the entire Fair Haven Heights Hill",1435662.0,5185,41.3051498927,-72.8883988036,71705.0,Rich Hayden,Registered User,http://bit.ly/1BSTv2Z,Open,Health Complaints,2015-01-19T14:57:07-05:00,5185,Fair Haven Heights
97,,"Woodward Ave New Haven, Connecticut",Health Complaints,,2015-01-08T11:53:50-05:00,"Between 2 and 5 am there is a deep vibrating noise that sounds like some kind of boat/barge. By 7am, Silence. So thank you City of New Haven for making all the noise right when people need to sleep and turning it off right when they have to wake up.
Seriously, is what they are doing at 2am SO IMPORTANT that it can't wait until 6am??? This has happened many times before and it is time for the decision makers on these ""projects"" to realize t hat peolle actually live and thus sleep in this neighborhood at 2am.",1432924.0,5185,41.2805178,-72.8977366,0.0,Lucia,Registered User,http://bit.ly/1DCfLjl,Open,2am; Noise,2015-01-12T15:33:02-05:00,5185,Annex
98,,"Dean Street New Haven, Connecticut",Health Complaints,,2014-12-13T13:06:59-05:00,"Tweed sprayed pesticide on foliage along fence this summer without notifying neighbors.  Not only that, it is a DEEP issue.  I am sure it has leached into the Creek.  The foliage is still dead.  Neighbors complained of headaches and sore throats.  Just go look now.  You can see where they did it.  Please have a soil test done and make Tweed responsible for this serious federal and state violation.  More photos available.",1401907.0,5185,41.2637198,-72.8908254,0.0,An anonymous SeeClickFix user,Registered User,http://bit.ly/1yN76ew,Open,Health Complaints,2014-12-15T07:31:21-05:00,5185,East Shore
99,2014-04-28T11:25:01-04:00,"155 Burr St East Haven, Connecticut",Health Complaints,2014-11-24T11:43:36-05:00,2014-04-25T12:44:19-04:00,"Lead is a dangerous neurotoxin that destroys nerve tissue and causes a variety of health and neurological problems, particularly in children. Avgas-fueled aircraft are the single largest source of lead air emissions in the country.  See Advanced Notice of Proposed Rulemaking in 2010. 

A July 2011 study from Duke University published in the journal Environmental Health Perspectives supports concerns about the severe and negative public health consequences caused by lead emissions from aircraft. The report found that children living within 500 meters of an airport at which planes use leaded avgas have higher blood lead levels than other children. This effect of aircraft lead emissions on blood lead levels was also evident among children living within 1 kilometer of airports. The researchers concluded that there is a significant association between potential exposure to lead emissions from aviation gasoline and blood lead levels in children.

Results of lead monitoring conducted by EPA at 17 general aviation airports around the country were announced in June 2013, confirming the existing danger and further reinforcing the need for immediate EPA action to phase out lead in avgas.

What is happening at Tweed Airport?!?!",1051747.0,5185,41.268908,-72.8910587,15393.0,Rachel Heerema,Registered User,http://bit.ly/1jMdFl3,Open,Health Complaints - Lead Contamination via Air Emissions at Tweed?,2015-01-22T12:49:32-05:00,5185,East Shore
100,2014-04-17T10:37:02-04:00,"502 Chapel St New Haven, Connecticut",Health Complaints,,2014-04-13T08:15:25-04:00,"The entire area smell of chemicals this morning. This happens frequently but seems to be worse on Sunday mornings.
The smell seems to come from Gateway Terminal when they are unloading a tanker.  
Does anybody know what the regulations are for vapor recovery at this facility and who is responsible for monitoring it?  If it smells this strong a half a mile away, they cannot possibly be in compliance.  ",1031679.0,5185,41.303446,-72.915199,32926.0,Frank,Registered User,http://bit.ly/1hB1lqY,Acknowledged,Air polution from Gateway Terminal,2014-04-17T19:18:45-04:00,5185,Wooster Square/Mill River
101,,"105 E Grand Ave New Haven, Connecticut",Illegal Dumping,,2015-04-11T08:39:17-04:00,"Someone has left a shopping cart in front of our house, and we don't know how to get rid of it. Does public works handle such trash?",1585674.0,1250,41.3091292322,-72.8808101245,0.0,An anonymous SeeClickFix user,Registered User,http://bit.ly/1O1ILoc,Open,Illegal Dumping,2015-04-11T11:29:49-04:00,1250,Fair Haven Heights
102,,"Hillside Place  New Haven, Connecticut",Illegal Dumping,,2015-04-10T18:34:02-04:00,Car with CT license plates LYNN 44 threw a grocery bag of garbage out their car window along with a soda can ,1584215.0,1250,41.3210379,-72.9247959,0.0,An anonymous SeeClickFix user,Registered User,http://bit.ly/1D5jwhO,Open,Illegal Dumping,2015-04-10T18:34:02-04:00,1250,Downtown
103,,"239-259 Edgewood Avenue New Haven, CT 06511, USA",Illegal Dumping,,2015-04-10T08:40:36-04:00,,1582946.0,1250,41.3129196167,-72.9422988892,2.0,Ben,Admin,http://bit.ly/1chA90Z,Open,Illegal Dumping,2015-04-10T08:40:36-04:00,1250,Dwight
104,2015-04-10T11:22:22-04:00,"49 Edwards St New Haven, Connecticut",Illegal Dumping,,2015-04-09T21:37:28-04:00,This TV has been in front of 49 Edwards since the fall.,1581755.0,1250,41.316715,-72.911109,424.0,Martha,Registered User,http://bit.ly/1z06azj,Acknowledged,TV in front of 49 Edwards,2015-04-10T20:20:48-04:00,1250,East Rock
105,2015-04-09T16:41:50-04:00,"2 Button Street New Haven, Connecticut",Illegal Dumping,,2015-04-09T15:39:39-04:00,Couch on grass next to street and partially on sidewalk,1581228.0,1250,41.290911,-72.936312,0.0,An anonymous SeeClickFix user,Registered User,http://bit.ly/1CmOM9k,Acknowledged,Illegal Dumping,2015-04-09T16:41:50-04:00,1250,Hill
106,2015-04-09T16:41:23-04:00,"38 Hallock Avenue New Haven, Connecticut",Illegal Dumping,,2015-04-09T15:38:41-04:00,"Couch on sidewalk
Please remove",1581226.0,1250,41.2839745,-72.9289578,0.0,An anonymous SeeClickFix user,Registered User,http://bit.ly/1CmOAqO,Acknowledged,Illegal Dumping,2015-04-09T16:41:23-04:00,1250,Hill
107,,"113 Pine Street New Haven, Connecticut",Illegal Dumping,,2015-04-08T15:59:30-04:00,"Neighbors dumping trash on vacant apartment, new owners to the property complaining. ",1578823.0,1250,41.31281,-72.8940949,6774.0,Department of Public Works,Verified Official,http://bit.ly/1E6Setl,Open,Illegal Dumping,2015-04-08T16:14:41-04:00,1250,Fair Haven
108,2015-04-07T11:27:23-04:00,"80-122 Springside Avenue New Haven, CT 06515, USA",Illegal Dumping,,2015-04-07T11:06:03-04:00,More trash on Springside ,1575047.0,1250,41.334487915,-72.9567184448,395321.0,K8,Registered User,http://bit.ly/1agw9MU,Acknowledged,Illegal Dumping,2015-04-07T15:01:17-04:00,1250,West Rock
109,2015-04-06T15:18:31-04:00,"38 Wilson Street New Haven, Connecticut",Illegal Dumping,,2015-04-06T12:34:30-04:00,mattresses left on sidewalk,1573511.0,1250,41.291571,-72.938519,0.0,An anonymous SeeClickFix user,Registered User,http://bit.ly/1DEVJZx,Acknowledged,Illegal Dumping,2015-04-06T15:18:31-04:00,1250,Hill
110,2015-04-06T15:18:18-04:00,"2 Button Street New Haven, Connecticut",Illegal Dumping,,2015-04-06T12:33:35-04:00,Couch dropped on sidewalk,1573509.0,1250,41.290911,-72.936312,0.0,An anonymous SeeClickFix user,Registered User,http://bit.ly/1DEVyNQ,Acknowledged,Illegal Dumping,2015-04-06T15:18:18-04:00,1250,Hill
111,,"116 Nicoll Street New Haven, Connecticut",Illegal Dumping,,2015-04-06T11:34:35-04:00,There is a filty couch along with filthy blankets that have been dumped in front of 116 Nicoll and have been there for at least week.   It makes the neighborhood look horrible and is an eye sore.  Can this person be fined?  ,1573364.0,1250,41.3188699,-72.910062,0.0,An anonymous SeeClickFix user,Registered User,http://bit.ly/1DEMf0a,Open,Illegal Dumping,2015-04-06T12:42:43-04:00,1250,East Rock
112,,"925 Forest Road New Haven, Connecticut",Illegal Dumping,,2015-04-06T09:09:02-04:00,"PEOPLE THROW AWAY EVERY SINGLE DAY (MORE ON WEEK ENDS) ANY KIND OF OBJECTS: CANS, GLASS BOTTLES, GARBAGE BAGS, BEERS, FAST FOOD, CIGARETTES, CARTON BOXES, ETC",1572974.0,1250,41.31753,-72.9706999,1040082.0,LUIS VICTORI,Registered User,http://bit.ly/1FvJJXD,Open,LITTERING,2015-04-06T12:16:33-04:00,1250,Westville
113,,"1040 Quinnipiac Avenue New Haven, Connecticut",Illegal Dumping,,2015-04-05T19:22:28-04:00,Excessive litter on Quinnipiac Ave is a huge eye sore and also an environmental concern.  A LOT of trash that has been thrown over the years from passing vehicles.  The worst areas is near the train overpass.  Even DPW or NH Police barricades are among the trash strewn about the roadside.  The items need to be picked up and I suggest place a sign reminding travelers about unlawful littering and potential fines.  It appears the drains are blocked with trash.,1572595.0,1250,41.3159737433,-72.8775106868,0.0,An anonymous SeeClickFix user,Registered User,http://bit.ly/1F2PdMf,Open,Illegal Dumping-  excessive litter,2015-04-06T14:06:48-04:00,1250,Quinnipiac
114,,"348 Norton New Haven, Connecticut",Illegal Dumping,,2015-04-04T17:37:21-04:00,nm,1571626.0,1250,41.3207241,-72.9444296,0.0,An anonymous SeeClickFix user,Registered User,http://bit.ly/1D4WAAy,Open,Tire dumped,2015-04-04T22:20:26-04:00,1250,Beaver Hills
115,2015-04-01T12:13:49-04:00,"312 Newhall St New Haven, Connecticut",Illegal Dumping,,2015-04-01T12:03:17-04:00,Items dumped in front of this address need to be removed.,1565870.0,1250,41.332349,-72.927731,6774.0,Department of Public Works,Verified Official,http://bit.ly/1ImU20l,Acknowledged,Illegal Dumping,2015-04-01T12:13:49-04:00,1250,Newhallville
116,2015-04-01T12:13:22-04:00,"Corner Of Ivy & Winchester New Haven, Connecticut",Illegal Dumping,,2015-04-01T11:59:02-04:00,Items dumped on corner. Please remove,1565854.0,1250,41.3287557,-72.9265281,6774.0,Department of Public Works,Verified Official,http://bit.ly/1ImTgAA,Acknowledged,Illegal Dumping,2015-04-01T12:13:22-04:00,1250,Prospect Hill
117,2015-04-01T12:13:06-04:00,"169-201 Hazel Street New Haven, Connecticut",Illegal Dumping,,2015-04-01T11:57:34-04:00,Trash dumped on Hazel Street between Dixwell Avenue and Shelton Street. Please remove,1565846.0,1250,41.3293285766,-72.9338326487,6774.0,Department of Public Works,Verified Official,http://bit.ly/1ImT3xf,Acknowledged,Illegal Dumping,2015-04-01T12:13:06-04:00,1250,Newhallville
118,,"10-12 Court Street New Haven, Connecticut",Illegal Dumping,,2015-03-31T18:02:16-04:00,"Not sure who's responsible, most probably somebody who doesn't know any better, but one of the tenants at 10 Court Street keeps putting out for collection pieces of a broken dresser or chest made of gray plastic and white glass. It was put out last week and wasn't picked up and it was put out again this week and wasn't picked up -- because it is neither rubbish or recyclables, simply dumped on the ground by the street. Meanwhile, it's still sitting there and making the neighborhood that we all take a lot of pride in look trashy.
To whomever owns this trash, please take it to the New Haven Transfer station at 260 Middletown Ave. in New Haven. It will likely be absolutely free to dump it. I believe they're open until 3 p.m. but you might want to call (203) 946-8109 to make sure. Thanks.",1564766.0,1250,41.3049567791,-72.9188380088,60168.0,Mahfouz,Registered User,http://bit.ly/19GozdY,Open,Illegal Dumping,2015-04-01T12:47:47-04:00,1250,Wooster Square/Mill River
119,,"551-583 Edgewood Avenue New Haven, CT 06511, USA",Illegal Dumping,,2015-03-31T08:47:56-04:00,Tires at park entrance. ,1563507.0,1250,41.3164346682,-72.9555598165,918454.0,scebik,Registered User,http://bit.ly/1xvgMLa,Open,Illegal Dumping,2015-04-03T10:11:12-04:00,1250,Edgewood
120,2015-04-01T08:28:52-04:00,"28-30 Russell Street New Haven, CT 06513, USA",Illegal Dumping,,2015-03-26T19:05:21-04:00,Dump site,1554792.0,1250,41.2972261958,-72.8880374899,0.0,An anonymous SeeClickFix user,Registered User,http://bit.ly/1OBx62q,Acknowledged,Illegal Dumping,2015-04-01T15:15:46-04:00,1250,Annex
121,2015-04-01T08:29:32-04:00,33 Dickerman St,Illegal Dumping,,2015-03-24T18:13:12-04:00,Pike employees clean a apartment out and left this all on the sidewalk ,1551141.0,1250,41.3157740081,-72.936171,0.0,An anonymous SeeClickFix user,Registered User,http://bit.ly/1CnEHfL,Acknowledged,Illegal Dumping,2015-04-01T09:34:31-04:00,1250,Dixwell
122,,"551 Edgewood Avenue New Haven, CT 06511, USA",Illegal Dumping,,2015-03-24T08:39:29-04:00,Another mattress at Edgewood park,1549840.0,1250,41.3164391964,-72.9555267171,918454.0,scebik,Registered User,http://bit.ly/1CLKfkW,Open,Illegal Dumping,2015-03-24T18:02:00-04:00,1250,Edgewood
123,,"83 East Rock Road New Haven, Connecticut",Illegal Dumping,,2015-03-23T09:01:54-04:00,Resident reports illegally dumped items on the public land at this location. There are mattresses that were thrown here. Please send someone into this area to remove the dumped items. ,1546933.0,1250,41.3306888183,-72.9112345554,6774.0,Department of Public Works,Verified Official,http://bit.ly/1Ik0Yfr,Open,Illegal Dumping ,2015-03-23T13:52:28-04:00,1250,East Rock
124,2015-03-23T10:55:45-04:00,"551-559 Edgewood Avenue New Haven, CT 06511, USA",Illegal Dumping,,2015-03-23T07:59:42-04:00,Mattress dumped at entrance to Edgewood Park on Edgewood Ave. ,1546767.0,1250,41.3162319487,-72.9545285579,366734.0,SW,Registered User,http://bit.ly/1IjMkER,Acknowledged,Illegal Dumping,2015-03-23T10:55:45-04:00,1250,Edgewood
125,2015-03-23T10:56:03-04:00,"Front Street & Middletown Ave. New Haven, Connecticut",Illegal Dumping,,2015-03-22T19:56:22-04:00,"Large sofa and mattress dumped just south of bridge, plus another sofa under the bridge. Please pick up!

thanks",1546161.0,1250,41.3206661,-72.8910919,117871.0,Christel,Registered User,http://bit.ly/1MYOht8,Acknowledged,Illegal Dumping,2015-03-23T10:56:03-04:00,1250,Fair Haven
126,2015-03-23T10:56:15-04:00,"1261-1273 Ella T Grasso Boulevard New Haven, CT 06511, USA",Illegal Dumping,,2015-03-22T14:10:05-04:00,High mileage mattress and box spring ,1545460.0,1250,41.3126983679,-72.9521560669,76928.0,Paul N,Registered User,http://bit.ly/1FqexM0,Acknowledged,Illegal Dumping,2015-03-23T10:56:15-04:00,1250,West River
127,,"205 Lombard St New Haven, Connecticut",Illegal Dumping,,2015-03-21T08:40:01-04:00,"branches dumped in front of 
garage again! can not open
garagr door.",1544369.0,1250,41.315961,-72.893113,0.0,david b steege,Registered User,http://bit.ly/1EzpiWY,Open,Illegal Dumping,2015-03-21T08:40:01-04:00,1250,Fair Haven
128,2015-03-17T09:34:30-04:00,"80-122 Springside Avenue New Haven, CT 06515, USA",Illegal Dumping,,2015-03-15T10:22:10-04:00,The dumping on Springside is out of control. ,1531347.0,1250,41.3353843689,-72.958404541,0.0,An anonymous SeeClickFix user,Registered User,http://bit.ly/1HU5jWm,Acknowledged,Illegal Dumping,2015-03-17T09:34:30-04:00,1250,West Rock
129,2015-03-16T11:27:54-04:00,"Blake Street Near Corner Of Osborn Ave New Haven, CT",Illegal Dumping,,2015-03-15T09:53:38-04:00,"There is a large TV dumped on Bleake near the corner of Osborn Ave, that has STILL not been removed.  It is now broken in pieces and the children who walk there to their bus, could get injured by the sharp pieces lying in their path.  Please remove this item IMMEDIATELY.",1531324.0,1250,41.3234726,-72.9515431,0.0,An anonymous SeeClickFix user,Registered User,http://bit.ly/1HU3U1W,Acknowledged,Large TV Dumped,2015-03-16T11:27:54-04:00,1250,Beaver Hills
130,2015-03-17T09:34:42-04:00,"112 Main Street Annex New Haven, Connecticut",Illegal Dumping,,2015-03-14T09:15:42-04:00,A large TV set was illegally dumped in front of 112 Main street annex. It's very close my driveway. It happened on friday night between 7-9pm. ,1530442.0,1250,41.2870711,-72.8891713,0.0,Vinod Ramgolam,Registered User,http://bit.ly/1GPp4ki,Acknowledged,Illegal Dumping-Large TV set,2015-03-17T09:34:42-04:00,1250,Annex
131,,"East Ramsdell Street New Haven, Connecticut",Illegal Dumping,,2015-03-13T09:28:56-04:00,"The 60+ clients who go twice a day over to the basketball court behind 7-11 throw their cigarette butts on the ground.  In a year there will be over 20,000 butts.  The men also monopolize the basketball court in the summer and spring and the kids in the neighborhood cannot play.  It is our neighborhood not the private use for Cross Roads.",1528937.0,1250,41.3335529,-72.9731333,0.0,Kathryn Auguste,Registered User,http://bit.ly/1EGwQwb,Open,Illegal Dumping,2015-03-16T01:11:57-04:00,1250,Amity
132,2015-03-13T09:34:14-04:00,"32 Chambers Street New Haven, Connecticut",Illegal Dumping,,2015-03-12T22:26:54-04:00,"There is a box spring someone left on the side of the road on Chambers, just below East Pearl.",1528583.0,1250,41.3055578813,-72.8919801851,60628.0,Mark,Registered User,http://bit.ly/1E9NRJL,Acknowledged,Illegal Dumping,2015-03-17T09:56:45-04:00,1250,Fair Haven
133,,"154 Huntington Ave New Haven, Connecticut",Illegal Dumping,,2015-03-12T17:11:48-04:00,"The owner of this building has been adding to the trash pile for over two weeks.  The trash has not been picked up by City services, as this is obviously beyond the scope of standard household garbage.",1528010.0,1250,41.2867524,-72.8898722,0.0,An anonymous SeeClickFix user,Registered User,http://bit.ly/1BApXsk,Open,Illegal Dumping,2015-03-12T17:11:48-04:00,1250,Annex
134,,"138 Springside Avenue New Haven, Connecticut",Illegal Dumping,,2015-03-12T10:02:22-04:00,"This issue has been reported numerous times even by Westville District Police Manager.  License number of a dumper was also reported.  Too many things have been dumped between 138 Springside and Common Ground high School.  Looks like a whole house was emptied:  big black leather couches, rugs, tires etc.  This keeps happening.  Maybe NO Dumping signs should be posted but if it was cleaned up more promptly more dumping may not occur.  This has been for at least two weeks or more now.",1526754.0,1250,41.3329967215,-72.9561315114,0.0,Cindy,Registered User,http://bit.ly/1E89D0C,Open,Illegal Dumping,2015-03-12T10:33:23-04:00,1250,West Rock
135,2015-03-11T07:51:23-04:00,"46 Pierpont Street New Haven, Connecticut",Illegal Dumping,,2015-03-10T14:20:59-04:00,"Landlord comes by to see the house every now and then , his tenants dump out anything they want on the curb like it's their own trash bin ... Old tvs and furniture has been sitting on curb for weeks , if picked up by the department of public works , which they do a phenomenal job , please leave a posted sign on their door for the landlord to not allow that... Also eye soar his trash bins are left in the public view by the side walk. Should be put in back. 

46 Pierpont st 

Thank you... ",1521733.0,1250,41.307091,-72.892906,0.0,Concerned neighbors ,Registered User,http://bit.ly/1KS7E9B,Acknowledged,People use the street curb as their trash bin.,2015-03-21T14:10:08-04:00,1250,Fair Haven
136,2015-03-10T14:10:32-04:00,"38 Hallock St New Haven, Connecticut",Illegal Dumping,2015-03-17T11:37:58-04:00,2015-03-10T10:30:19-04:00,Several mattresses and some furniture dumped in front of house.,1521032.0,1250,41.298811,-72.937392,88377.0,LCI Hill North / Hill South,Verified Official,http://bit.ly/1KR2xX3,Open,Illegal Dumping,2015-03-17T11:40:55-04:00,1250,Hill
137,2015-03-09T11:57:09-04:00,"Front And Chambers  New Haven, Connecticut",Illegal Dumping,,2015-03-09T11:47:45-04:00,There are illegally dumped items at this location. Please send someone to remove the dumped items as soon as possible.,1519429.0,1250,41.3054868,-72.891401,6774.0,Department of Public Works,Verified Official,http://bit.ly/1E1eh0i,Acknowledged,Illegal Dumping,2015-03-09T12:07:42-04:00,1250,Fair Haven
138,2015-03-09T11:57:09-04:00,"Crescent Street And Munson Street  New Haven, Connecticut",Illegal Dumping,,2015-03-09T11:43:40-04:00,There are black garbage bags that were illegally dumped at this location. Please send someone to remove them as soon as possible.,1519392.0,1250,41.32351,-72.9405313,6774.0,Department of Public Works,Verified Official,http://bit.ly/1E1dVqv,Acknowledged,Illegal Dumping,2015-03-09T11:57:09-04:00,1250,Beaver Hills
139,2015-03-03T12:17:14-05:00,"87 Townsend Avenue  New Haven, Connecticut",Illegal Dumping,2015-03-17T11:33:35-04:00,2015-03-03T10:18:56-05:00,Resident reports that bags full of insulation were dumped in front of this location. Please send someone to removed the dumped bags. ,1510234.0,1250,41.260007,-72.89267,6774.0,Department of Public Works,Verified Official,http://bit.ly/1wQDnMK,Open,Illegal Dumping,2015-03-17T11:39:39-04:00,1250,East Shore
140,2015-03-04T10:12:21-05:00,"Bradley Street And State Street  New Haven, Connecticut",Illegal Dumping,,2015-03-03T09:40:08-05:00,"Resident reports illegal dumping activities on Bradley Street, near the corner of State and Bradley. There is a piece of land within a green fence. Dumping is occurring within the fence. Please investigate.",1509910.0,1250,41.3115962051,-72.9162335884,6774.0,Department of Public Works,Verified Official,http://bit.ly/1wQofie,Acknowledged,Illegal Dumping,2015-03-06T10:58:14-05:00,1250,Downtown
141,2015-03-03T08:23:11-05:00,"Front Street & Middletown Ave New Haven, Connecticut",Illegal Dumping,,2015-02-27T16:55:03-05:00,"Here we go again. Another sofa, TV, kids tricycle, and construction materials dumped under bridge. Please pick up!",1506313.0,1250,41.3206661,-72.8910919,117871.0,Christel,Registered User,http://bit.ly/18vDIz2,Acknowledged,Illegal Dumping,2015-03-03T08:23:11-05:00,1250,Fair Haven
142,2015-02-23T09:49:31-05:00,"374-380 Front Street New Haven, Connecticut",Illegal Dumping,,2015-02-20T17:41:54-05:00,Somebody dumped a king size mattress and some cardboard right in the street!!!   and we thought dumping under the bridge was bad . . . Please pick up asap. Thanks,1496607.0,1250,41.3186924572,-72.8879867317,117871.0,Christel,Registered User,http://bit.ly/1AYWj1a,Acknowledged,Illegal Dumping,2015-02-23T09:49:31-05:00,1250,Fair Haven
143,2015-02-17T07:41:05-05:00,"Front Street & Middletown Ave New Haven, Connecticut",Illegal Dumping,,2015-02-16T14:04:49-05:00,"a sofa and other furniture were dumped under bridge . . .  only days after Public Works had picked up stuff previously dumped there (thank you). what a total drag! anyway, please pick up this new load. We appreciate you helping us keeping our neighborhood nice!",1490045.0,1250,41.3206661,-72.8910919,117871.0,Christel,Registered User,http://bit.ly/1vQ0Suw,Acknowledged,Illegal Dumping,2015-02-17T07:41:05-05:00,1250,Fair Haven
144,,"River Street Corner Of Blatchley Ave. New Haven, Connecticut",Illegal Dumping,,2015-02-14T14:31:49-05:00,Multiple big bags of who knows what left on top of snow banks.,1488109.0,1250,41.3031066,-72.8985622,0.0,An anonymous SeeClickFix user,Registered User,http://bit.ly/179d11t,Open,Illegal Dumping,2015-02-14T21:27:00-05:00,1250,Fair Haven
145,2015-01-30T14:47:39-05:00,"38 Hallock St New Haven, Connecticut",Illegal Dumping,2015-03-11T17:40:06-04:00,2015-01-30T14:46:42-05:00,Vacant property has a pile of mattresses dumped on tree belt. Please remove,1467701.0,1250,41.298811,-72.937392,6774.0,Department of Public Works,Verified Official,http://bit.ly/1tGbrPs,Open,Illegal Dumping,2015-03-12T12:35:25-04:00,1250,Hill
146,,"746 Winchester Ave new haven, ct",Illegal Dumping,,2015-01-29T10:40:15-05:00,"When They gutted and remodeled the Home They stole cans from Neighbors....They filled a recycable can with Const debris. For 3 wks on trash Day They look and see whats in it , and leave it. Remodeling has ended and this can just sits on the sidewalk full...How can it get removed???",1465501.0,1250,41.3309649,-72.9257139,0.0,unauthorized trash,Registered User,http://bit.ly/1z7NYHw,Open,Unauthorized Trash (Construction Debris),2015-01-29T17:36:16-05:00,1250,Newhallville
147,,"33 Admiral St New Haven, Connecticut",Illegal Dumping,,2015-01-22T16:16:00-05:00,THIS HOUSE HAS BEEN EMPTY OVER A YEAR THEY HAVE NOW ADDED MATTRESSES TO THE DUMO I'M AFFRAID MY TENANTS WILL START HAVING MICE DUE TO THE FACT THAT THEY ALSO HAVE TRASH BINS AND CANS OVER FLOWING WITH OLD MOLDY SMELLING FOOD MAGGOTTS WERE ON THE TRASH IN THE SUMMER AND NOW IVE NOTICED THEY ARE STARTING TO MAKE A DUMP FOR ANY THING,1453048.0,1250,41.32048,-72.931653,0.0,An anonymous SeeClickFix user,Registered User,http://bit.ly/1t3bAfo,Open,Illegal Dumping,2015-01-22T16:16:00-05:00,1250,Dixwell
148,2015-01-22T16:16:29-05:00,"299-309 Edgewood Avenue New Haven, CT 06511, USA",Illegal Dumping,,2015-01-22T10:15:30-05:00,"Hello Nick:
     There is another pile of junk outside that apartment building at the corner of Edgewood and Sherman. Probably not the management, probably tenants telling each other how to get rid of junk cheap! 
Brian




--------------------
Sent from Brian's iPhone",1452526.0,1250,41.3133949669,-72.9442368372,417.0,Brian Noonan,Registered User,http://bit.ly/1Ewj8Zq,Acknowledged,Illegal Dumping,2015-01-22T16:16:29-05:00,1250,Edgewood
149,2015-01-22T07:48:52-05:00,"Willow Street New Haven, CT 06511, USA",Illegal Dumping,,2015-01-22T06:29:01-05:00,Bags of exploded trash on Willow St under the 95 bridge,1452315.0,1250,41.317922721,-72.9017864653,195755.0,Eric O'Brien,Registered User,http://bit.ly/1Bh87Kt,Acknowledged,Illegal Dumping,2015-01-23T09:26:33-05:00,1250,Fair Haven
150,2015-01-20T08:00:52-05:00,"1-35 Lexington Avenue New Haven, CT 06513, USA",Illegal Dumping,,2015-01-17T09:53:22-05:00,Content blocked by rejections,1445018.0,1250,41.2975891963,-72.887696385,0.0,An anonymous SeeClickFix user,Registered User,http://bit.ly/1yuMcP1,Acknowledged,Content blocked by rejections,2015-03-06T08:10:28-05:00,1250,Fair Haven Heights
151,,"440 Front Street New Haven, CT 06513, USA",Illegal Dumping,,2015-01-12T12:03:06-05:00,This couch has been behind the fence for at least two months. ,1437926.0,1250,41.3202012883,-72.890141143,92781.0,Tech75,Registered User,http://bit.ly/1tZQX4D,Open,Illegal Dumping,2015-03-16T13:05:31-04:00,1250,Fair Haven
152,2015-01-13T08:38:22-05:00,"Essex Street  New Haven, Connecticut",Illegal Dumping,,2015-01-12T09:40:36-05:00,Received call regarding illegal dumping on Essex Street. No exact address provided. Please investigate. ,1437488.0,1250,41.3184309,-72.8742559,6774.0,Department of Public Works,Verified Official,http://bit.ly/1yZQVuN,Acknowledged,Illegal Dumping,2015-01-17T21:54:52-05:00,1250,Fair Haven Heights
153,2015-01-02T08:53:48-05:00,"28-30 Russell Street New Haven, CT 06513, USA",Illegal Dumping,,2014-12-31T14:11:07-05:00,DUMP SITE  still thier,1422508.0,1250,41.2971015569,-72.8880747958,0.0,An anonymous SeeClickFix user,Registered User,http://bit.ly/14cTvR8,Acknowledged,Illegal Dumping,2015-01-06T12:43:27-05:00,1250,Annex
154,2015-01-02T12:11:13-05:00,"554 Central Ave New Haven, Connecticut",Illegal Dumping,,2014-12-30T11:10:53-05:00,The tenants next door at 558 Central Ave. moved out last week and left a couch at the curb.  The property is next door to mine and I worry that when it snows it will still be there.,1420300.0,1250,41.3241687,-72.9608467,0.0,Abandoned Couch,Registered User,http://bit.ly/1vpmWot,Acknowledged,Couch left out at curbside,2015-01-02T12:11:13-05:00,1250,Westville
155,2014-12-30T09:23:01-05:00,"Across From 148 Exchange Street New Haven, CT",Illegal Dumping,,2014-12-29T21:56:25-05:00,People from corner house keep putting bulk trash out with regular  trash....then other people dumping more trash......,1419760.0,1250,41.307432,-72.894625,0.0,jenna,Registered User,http://bit.ly/1rwfbBS,Acknowledged,trash,2014-12-30T09:23:01-05:00,1250,Fair Haven
156,2014-12-29T08:24:49-05:00,"309 Edgewood Avenue New Haven, CT 06511, USA",Illegal Dumping,,2014-12-27T09:33:28-05:00,More junk in the same place on Edgewood! Same people responsible?,1417307.0,1250,41.3134880066,-72.9444885254,417.0,Brian Noonan,Registered User,http://bit.ly/1wRJyn6,Acknowledged,Illegal Dumping,2014-12-29T16:08:12-05:00,1250,Edgewood
157,2015-01-02T08:55:19-05:00,"28-30 Russell Street New Haven, CT 06513, USA",Illegal Dumping,2014-12-30T14:38:44-05:00,2014-12-27T07:32:28-05:00,DUMP SITE.      ,1417287.0,1250,41.2971552375,-72.8880155423,0.0,An anonymous SeeClickFix user,Registered User,http://bit.ly/1wRu0jp,Acknowledged,Illegal Dumping,2015-01-06T12:42:49-05:00,1250,Annex
158,2014-12-29T09:00:25-05:00,"14 Ruby Street  New Haven, Connecticut",Illegal Dumping,,2014-12-26T10:01:25-05:00,Resident reports illegally dumped items in front of this location. Please send someone to investigate. ,1416351.0,1250,41.324956,-72.9507239,6774.0,Department of Public Works,Verified Official,http://bit.ly/1xkOwHK,Acknowledged,Illegal Dumping,2014-12-29T09:00:25-05:00,1250,Beaver Hills
159,,"289-307 Yale Avenue New Haven, CT 06515, USA",Illegal Dumping,,2014-12-23T13:25:14-05:00,Trash thrown into the marsh off the side of the observation platform in the park.  This appears to have accumulated over time.  Needs to be cleaned up.,1413775.0,1250,41.318152183,-72.9587898891,59880.0,DCooke,Registered User,http://bit.ly/13tQyKO,Open,Illegal Dumping,2015-02-24T15:30:19-05:00,1250,Westville
160,2014-12-29T09:04:30-05:00,"30-78 Warwick Street New Haven, Connecticut",Illegal Dumping,,2014-12-21T17:03:11-05:00,"The giant ditch in front of the elementary school is becoming New Havens latest landfill. As of a few days ago there were at least a half dozen mattresses and box springs, TVs etc etc all over the place. The fact that this dumping is happening at a fairly busy four way stop sign is quite disturbing. ",1411762.0,1250,41.2972007304,-72.8881915637,0.0,Mike,Registered User,http://bit.ly/1wTgbQV,Acknowledged,Illegal Dumping,2015-01-06T12:37:54-05:00,1250,Annex
161,2014-12-29T09:07:40-05:00,"28-30 Russell Street New Haven, CT 06513, USA",Illegal Dumping,,2014-12-18T06:27:08-05:00,Dumping on buckeyi property  mattresses couches etc. ,1408054.0,1250,41.2972184659,-72.8880111754,128101.0,NEW HAVEN,Registered User,http://bit.ly/1GTOI2M,Acknowledged,Illegal Dumping,2015-03-25T11:12:46-04:00,1250,Annex
162,2014-12-18T10:10:24-05:00,"1595 Chapel Street New Haven, CT 06511, USA",Illegal Dumping,,2014-12-17T18:22:23-05:00,Pile of garbage dumped.,1407615.0,1250,41.3125114441,-72.9496078491,7225.0,benhv,Verified Official,http://bit.ly/1wGA9ON,Acknowledged,Illegal Dumping,2014-12-18T10:10:24-05:00,1250,Edgewood
163,2014-12-30T09:26:23-05:00,"815 Chapel Street New Haven, CT 06510, USA",Illegal Dumping,,2014-12-17T12:57:07-05:00,Pile the biggest pieces of sh*t in new have leave garbage on sidewalk again,1407074.0,1250,41.3055738114,-72.924411831,0.0,Josh,Registered User,http://bit.ly/1r0aLmu,Acknowledged,Illegal Dumping,2014-12-30T09:26:23-05:00,1250,Downtown
164,2014-12-30T09:25:50-05:00,"205 Lombard St. New Haven, Connecticut",Illegal Dumping,,2014-12-17T07:27:49-05:00,"dumping in Peck alley behind
house. Can not open garage door.",1406671.0,1250,41.315961,-72.893113,0.0,david b steege,Registered User,http://bit.ly/1wKpPEe,Acknowledged,Illegal Dumping,2014-12-30T09:25:50-05:00,1250,Fair Haven
165,,"300 Eastern Street New Haven, Connecticut",Illegal Dumping,,2014-12-15T13:48:04-05:00,"Sargent Anastasio notified about situation. Construction material dumped at this address, near tree line. Maintenance supervisor came in to report issue. ",1404048.0,1250,41.315512,-72.8738599,6774.0,Department of Public Works,Verified Official,http://bit.ly/1IUkfFF,Open,Illegal Dumping,2014-12-15T15:12:19-05:00,1250,Fair Haven Heights
166,,"148 Dover St. New Haven, Connecticut",Illegal Dumping,,2014-12-12T12:21:23-05:00,,1400209.0,1250,41.317728,-72.893718,57405.0,URBAN FORESTER City of New Haven,Verified Official,http://bit.ly/1GumvQ3,Open,Illegal Dumping,2014-12-12T12:23:13-05:00,1250,Fair Haven
167,2015-01-12T09:06:31-05:00,"70 Morris Cove Road New Haven, Connecticut",Illegal Dumping,,2014-12-02T14:59:53-05:00,Home owner at 70 Morris Cove Road has put large piles of leaves in the street. This after the city public works department spent thousands of taxpayer dollars making are neighborhood look it's best and preventing the storm drains from getiing clogged and flooding of tne streets and others property. i believe that the city requlations allow for this person to be cited for this action.,1384994.0,1250,41.258057,-72.892854,0.0,An anonymous SeeClickFix user,Registered User,http://bit.ly/1vM0Uj7,Acknowledged,Illegal Dumping,2015-01-12T09:06:31-05:00,1250,East Shore
168,,"2-20 Front Street New Haven, Connecticut",Illegal Dumping,,2014-12-01T11:14:36-05:00,Large pieces of trash/tree limbs in road/on curb.  This area needs to be cleaned up as cars have to go around objects in the road near the stops signs,1383394.0,1250,41.3047447715,-72.8921637619,791276.0,Chris,Registered User,http://bit.ly/1yBXrWy,Open,Illegal Dumping,2014-12-01T11:14:36-05:00,1250,Fair Haven
169,2015-01-12T09:08:32-05:00,"White Trail New Haven, CT 06511, USA",Illegal Dumping,,2014-11-30T13:32:20-05:00,Old dresser and nightstand dumped on roadside by pedestrian path. ,1382463.0,1250,41.3264007582,-72.9070510864,0.0,An anonymous SeeClickFix user,Registered User,http://bit.ly/1HPmutn,Acknowledged,Illegal Dumping,2015-01-12T09:08:32-05:00,1250,East Rock
170,2014-11-28T14:10:37-05:00,"Howard Avenue And Kimberly Avenue  New Haven, Connecticut",Illegal Dumping,,2014-11-28T12:19:22-05:00,"In the vicinity of the Howard Avenue/Kimberly Avenue junction, there is illegal bulk pile on the street. Please have an inspector investigate as soon as possible. ",1380391.0,1250,41.2921403,-72.9326551,6774.0,Department of Public Works,Verified Official,http://bit.ly/1toKuKl,Acknowledged,Illegal Bulk Pile,2014-11-28T14:10:37-05:00,1250,Hill
171,2015-01-12T09:09:03-05:00,"822 Edgewood Avenue New Haven, CT 06515, USA",Illegal Dumping,,2014-11-27T09:30:45-05:00,,1379770.0,1250,41.3185043335,-72.9637298584,2.0,Ben,Admin,http://bit.ly/1yfUgTb,Acknowledged,Illegal Dumping,2015-01-12T09:09:03-05:00,1250,Westville
172,2015-01-12T09:09:15-05:00,"273 Sherman Avenue New Haven, CT 06511, USA",Illegal Dumping,,2014-11-24T09:23:40-05:00,Such a mess such a big mess please come clean it up.,1374120.0,1250,41.3155136108,-72.9428482056,417.0,Brian Noonan,Registered User,http://bit.ly/1uRDav1,Acknowledged,Illegal Dumping,2015-01-12T09:09:15-05:00,1250,Dwight
173,2015-01-12T09:09:39-05:00,"208 Wooster Street New Haven, CT 06511, USA",Illegal Dumping,,2014-11-23T11:10:40-05:00,"The guy that runs Maresca & Sons funeral home on Chapel street is blowing all of his leaves off of his private property into city streets. This is only 3 days after the city ran street sweepers through here. He does the same thing in the winter with his snow. I don't know if this is illegal, but it sure is inconvenient to his neighbors and the city works department. ",1373008.0,1250,41.3028755188,-72.9189834595,12459.0,LAAARRRSSS,Registered User,http://bit.ly/1AC3QDs,Acknowledged,Illegal Dumping,2015-01-12T09:09:40-05:00,1250,Wooster Square/Mill River
174,,"124-140 Livingston Street New Haven, Connecticut",Illegal Dumping,,2014-11-22T08:31:13-05:00,CRIB MATTRESS DUMPED ON STREET,1371845.0,1250,41.3225247431,-72.9145658253,0.0,Sandra Anagnostakis,Registered User,http://bit.ly/1y17QdY,Open,Illegal Dumping,2014-11-22T08:31:13-05:00,1250,East Rock
175,,"15 Crown Street New Haven, Connecticut",Illegal Dumping,,2014-11-21T12:26:03-05:00,"Someone left a couch behind my building. The couch is in the parking lot on Crown St., near State St. -- the lot behind Cafe 9.  The couch is standing on its end toward the parking garage at the back of the lot.  In general, this parking lot can use a lot more attention from police and city officials.  It's an extreme nuisance to those of us who live around it. ",1370911.0,1250,41.3038744478,-72.9239604767,453974.0,DJG,Registered User,http://bit.ly/1xWk1aZ,Open,Illegal Dumping,2014-11-23T07:40:46-05:00,1250,Downtown
176,,"551-583 Edgewood Avenue New Haven, Connecticut",Illegal Dumping,,2014-11-21T10:47:10-05:00,"On my way in to downtown this morning I saw yet another incident of dumping, this time it is two tires, on the sidewalk near Edgewood Park. Please pick these up, it makes it look like we encourage this sort of activity. Why are there no ""NO DUMPING"" signs in this area that indicate the fine involved for dumping?",1370799.0,1250,41.3164935333,-72.9557483302,404981.0,Springlady,Registered User,http://bit.ly/1xVXP0A,Open,Illegal Dumping of Tires,2014-11-21T19:59:14-05:00,1250,Edgewood
177,2014-11-12T09:54:29-05:00,"165 Church Street New Haven, Connecticut",Illegal Dumping,,2014-11-11T16:01:30-05:00,"A neighbor who requested information on disposing of a “moldy old sofa” was advised to transport it to the recycling center or to schedule a pickup.  Public Works pickup, however, requires that your driver's license needs to match the current address, and this student has a parent’s address on the license. And the recycling center doesn't take residential waste.  That policy would seem to explain why we see so many old couches left on the curb. I'm sure it costs the city more to send a crew to pick up furniture left illegally on the street than it would for the DPW to be a bit more flexible on accepting items from people like this person who wants do do the right thing.",1357663.0,1250,41.3074713186,-72.9244599189,5108.0,KenCT,Registered User,http://bit.ly/1GMxVS7,Acknowledged,Illegal Dumping,2014-11-13T18:16:33-05:00,1250,Downtown
178,2014-11-10T13:11:42-05:00,"60 Printers Lane New Haven, Connecticut",Illegal Dumping,,2014-11-10T13:10:30-05:00,Pile of tires have been dumped outside this address. Dumping constantly happens here. Please remove tires.,1356325.0,1250,41.293452,-72.948978,6774.0,Department of Public Works,Verified Official,http://bit.ly/1pJbiJ9,Acknowledged,Illegal Dumping,2014-11-10T13:11:42-05:00,1250,Hill
179,,"754 Chapel Street New Haven, CT 06510, USA",Illegal Dumping,,2014-11-08T10:37:40-05:00,Family dollar needs to get it together. Same old story. A bit worse this time. Garbage everywhere,1354129.0,1250,41.3046073914,-72.9233551025,37615.0,Chapel Watcher,Registered User,http://bit.ly/1z9Lea7,Open,Illegal Dumping,2015-02-11T15:26:06-05:00,1250,Downtown
180,2014-11-18T09:27:55-05:00,"Lloyd And River New Haven, Connecticut",Illegal Dumping,,2014-11-04T11:05:19-05:00,"One large bag of trash and another huge pile of of loose garbage dumped on the corner.  Recent receipts from Sims Metal Management  with the name of Michael Rossamondo of 1770 State Street, Hamden. CT.

",1349251.0,1250,41.3030052,-72.9001646,0.0,An anonymous SeeClickFix user,Registered User,http://bit.ly/1yUUG0V,Acknowledged,Illegal Dumping,2014-11-18T09:27:55-05:00,1250,Fair Haven
181,2014-11-18T09:28:25-05:00,"Depalma Court New Haven, Connecticut",Illegal Dumping,,2014-11-03T20:21:45-05:00,"White wood and metal animal cage dumped in foot path of Russo Park  on Depalma Court. ""Live Animals"" is painted on the side. ",1348587.0,1250,41.3032932445,-72.9179056825,0.0,An anonymous SeeClickFix user,Registered User,http://bit.ly/1DWkzyt,Acknowledged,Illegal Dumping,2014-11-18T09:28:25-05:00,1250,Wooster Square/Mill River
182,2014-11-18T09:28:51-05:00,"100 Pine Street New Haven, Connecticut",Illegal Dumping,,2014-11-03T14:45:00-05:00,"Garbage has been dumped on street and sidewalk in front of vacant property adjacent to 100 Pine Street, needs to be cleaned",1348110.0,1250,41.312454,-72.893275,0.0,Tony,Registered User,http://bit.ly/1obw5nD,Acknowledged,Garbage Dumped on Sidewalk,2014-11-18T09:28:51-05:00,1250,Fair Haven
183,2014-11-18T09:31:00-05:00,"20 Gilbert Avenue ( At The Corner Of Gilbert & Orchard Street New Haven, Connecticut",Illegal Dumping,,2014-11-03T14:06:36-05:00,"
Please be advised that the Community Garden at Orchard and Gilbert Avenue that was once owned by Yale and becomes a Public park has Garbage Piling. 



Secondly, The Park is harboring homeless, drug dealers. The Park needs to remain a gated community Garden not a [public parks It is unsafe for the home owners and children who lives in that area. This park is the vicinity for drugs traffiking, and become dangerous for the home onwers and children. 



Thanks you for your cooperation in the matter. 



Please be advised that the Community Garden at Orchard and Gilbert Avenue that was once owned by Yale and becomes a Public park has Garbage Piling. 



Secondly, The Park is harboring homeless, drug dealers. The Park needs to remain a gated community Garden not a [public parks It is unsafe for the home owners and children who lives in that area. This park is the vicinity for drugs traffiking, and become dangerous for the home onwers and children. 



Thanks you for your cooperation in the matter. 



Garbage is piling up at the Community Park once owned by Yale.
 The park is now open to the Public which is harboring drug dealers,
 homeless, It has become dangerous for the home owners and children in the neighborhood. This needs to be attended to. 

This is at the Corner of Orchard and Gilbert Avenue in Hew Haven, Ct. 

Thank you for your cooperation in the matter. 



",1348020.0,1250,41.307899,-72.94212,0.0,An anonymous SeeClickFix user,Registered User,http://bit.ly/1x2x2iX,Acknowledged,Illegal Dumping,2014-11-18T09:31:00-05:00,1250,West River
184,2014-11-18T09:42:49-05:00,"103 Oak Ridge Drive New Haven, Connecticut",Illegal Dumping,,2014-11-03T13:53:02-05:00,"Illegal dumping in the cul de sac. Residents wondering who will come and remove the trash from the street here. Street and driveway also damaged due to plow, residents seeking repair. ",1348005.0,1250,41.332335,-72.863262,6774.0,Department of Public Works,Verified Official,http://bit.ly/1x2sYiG,Acknowledged,Illegal Dumping,2014-11-18T09:42:49-05:00,1250,Quinnipiac
185,,"630 Chapel St New Haven, Connecticut",Illegal Dumping,,2014-10-30T13:53:01-04:00,"Comcast has been littering by leaving pieces of wire, cable connects and cable tie cut offs at almost every pole they work on- if you see this happening call the police for littering and then call Comcast Executive Customer Relations 1-877-898-6008 to report.

In the mean time, Comcast refuses to disclose who the installation supervisor for New Haven is so it can be stopped.",1343555.0,1250,41.3038496,-72.9207101,0.0,Comcrap needs to be stopped,Registered User,http://bit.ly/1wOfg5s,Open,Comcast littering everywhere,2014-10-30T20:22:16-04:00,1250,Downtown
186,2014-10-31T12:07:22-04:00,"Front Street Northeast Of Bailey St New Haven, Connecticut",Illegal Dumping,,2014-10-30T11:28:39-04:00,There's been an old couch behind the fence line on the northbound side of I-91 for over a week,1343370.0,1250,41.3193814,-72.8912819,92781.0,Tech75,Registered User,http://bit.ly/1yJEiAg,Acknowledged,More of the same,2014-11-04T08:58:13-05:00,1250,Fair Haven
187,,"Everit St And East Rock Rd New Haven, Connecticut",Illegal Dumping,,2014-10-24T21:48:15-04:00,"During the latest sweeping of our street, I was standing in a yard watching the lineup of idling tow trucks (a scene with which anyone from New Haven is likely familiar) when the truck pictured , from Long Wharf towing, dumped the trash from his breakfast (coffee cup and bag) out the drivers window and then drove away.   Does anyone else find it infuriating that people who are getting paid handsomely for clean up activities  are leaving the streets worse than when they arrived?",1335285.0,1250,41.3305442,-72.9119248,0.0,An anonymous SeeClickFix user,Registered User,http://bit.ly/1ywczDf,Open,Illegal Dumping,2014-10-31T20:17:51-04:00,1250,East Rock
188,,"White Trail New Haven, Connecticut",Illegal Dumping,,2014-10-23T07:53:10-04:00,A cardboard box filled with dead chickens missing their heads. Gruesome.,1333278.0,1250,41.3261661355,-72.9069504584,0.0,An anonymous SeeClickFix user,Registered User,http://bit.ly/1xcLuDD,Open,Illegal Dumping,2014-10-23T07:53:10-04:00,1250,East Rock
189,2014-10-20T16:37:36-04:00,"Front St. & Middletown Ave New Haven, Connecticut",Illegal Dumping,,2014-10-20T13:41:00-04:00,"Somebody has dumped furniture and household items under the Middletown Ave bridge. This weekend I picked up a ton of trash there too, and put it in a bag next to the dumped items. Please pick up asap before this attracts more dumping!!!",1329433.0,1250,41.3206661,-72.8910919,117871.0,Christel,Registered User,http://bit.ly/1pupqjL,Acknowledged,Illegal Dumping,2014-10-20T18:25:39-04:00,1250,Fair Haven
190,,"718 B Quinnipiac Avenue New Haven, Connecticut",Illegal Dumping,,2014-10-20T13:20:46-04:00,Neighbor is dumping trash outside of apartment and also is putting trash into the recycling bin. Requesting someone come to the property. ,1329412.0,1250,41.3093707,-72.8851671,6774.0,Department of Public Works,Verified Official,http://bit.ly/1pumfIV,Open,Illegal Dumping,2014-10-20T13:39:11-04:00,1250,Quinnipiac
191,2014-10-20T13:13:34-04:00,"88 First Street New Haven, Connecticut 06519",Illegal Dumping,,2014-10-19T14:03:56-04:00,"kitchen cabinet door [remarkably similar to one dumped in front of Galvin Park sign, a few hundred feet away...] carpeting and other crap dumped on curb strip: First street, near corner of Greenwich [along side of  431 Greenwich Ave [1st floor apartment of which just had new kitchen cabinets and carpeting installed. Probably just a curious coincidence...]",1328515.0,1250,41.2898916,-72.9332675,2974.0,christopher schaefer,Registered User,http://bit.ly/1tDmQzb,Acknowledged,Illegal Dumping 88 First Street,2014-10-20T13:13:34-04:00,1250,Hill
192,2014-10-20T13:13:02-04:00,"99 First St New Haven, Connecticut 06519",Illegal Dumping,,2014-10-19T13:58:13-04:00,"Carpeting, kitchen cabinet doors, etc. dumped on First St. in front of Galvin Park sign.",1328513.0,1250,41.2898543,-72.9336691,2974.0,christopher schaefer,Registered User,http://bit.ly/1tDmusa,Acknowledged,"Illegal Dumping at Galvin park sign, First Street",2014-10-20T13:13:03-04:00,1250,Hill
193,2014-10-16T16:17:33-04:00,"529 Ferry Street New Haven, Connecticut",Illegal Dumping,,2014-10-16T10:39:33-04:00,"Someone has dumped a couch and a large TV box at the old bottling plant, Chatham St side.  DPW, will you please pick up?
(And in the future, please make it easier for tenants to schedule a bulk pickup, thereby avoiding this nonsense)",1325268.0,1250,41.3143608944,-72.8963241754,2879.0,FairHavenRes,Registered User,http://bit.ly/1sXhCgB,Acknowledged,Illegal Dumping - Couch & Other Items,2014-10-16T16:17:33-04:00,1250,Fair Haven
194,,"61 Melrose Drive  New Haven, Connecticut",Illegal Dumping,,2014-10-15T09:43:27-04:00,Resident reports illegally dumped items in front of this address. The pile of items has been at the curbside for more than 2 months. Please have the items removed as soon as possible.,1322845.0,1250,41.3334609,-72.8647528,6774.0,Department of Public Works,Verified Official,http://bit.ly/1vv9y7E,Open,Illegal Dumping,2014-10-15T09:43:27-04:00,1250,Quinnipiac
195,2014-10-14T11:06:26-04:00,"300 Howard Ave New Haven, Connecticut 06519",Illegal Dumping,,2014-10-14T07:26:36-04:00,A large sofa has been sitting on the tree-strip in front of 300 Howard Ave. for about 5 days.,1320330.0,1250,41.289229,-72.9323129,2974.0,christopher schaefer,Registered User,http://bit.ly/ZXNyp0,Acknowledged,Illegal Dumping: 300 Howard Ave: sofa on curbstrip,2014-10-14T11:06:26-04:00,1250,Hill
196,2014-10-14T11:17:40-04:00,"146 Springside Avenue New Haven, Connecticut",Illegal Dumping,,2014-10-13T15:46:30-04:00,Once again I must report illegal dumping.  It is in the field on the left just after 140 Springside as well as at the edge of the road directly across on the right side of the road.  The brown piece of furniture which is in two parts was once out with my neighbors trashed and some how ended up there on both sides of the road with the biggest piece in the left hand field.  There are also TWO tires there.,1320012.0,1250,41.331913371,-72.9573258376,0.0,cindy,Registered User,http://bit.ly/1w2nWkS,Acknowledged,Illegal Dumping,2015-03-04T16:35:30-05:00,1250,West Rock
197,2014-10-07T11:03:01-04:00,"321 Whitney Ave New Haven, Connecticut",Illegal Dumping,,2014-10-07T10:46:23-04:00,"Resident  reports that A couch has been on the sidewalk for 6 months. This was illegally dumped on the corner of Edwards street across from the Law office.


PLEASE REMOVE",1312475.0,1250,41.319237,-72.918546,0.0,An anonymous SeeClickFix user,Registered User,http://bit.ly/1s8n0gx,Acknowledged,Illegal Dumping,2014-10-07T11:03:01-04:00,1250,East Rock
198,2014-10-09T09:04:21-04:00,353 Edgewood,Illegal Dumping,,2014-09-30T18:57:15-04:00,This pile of trash has been lying here in front of this house for so long that the weeds have grown over it!how can we get the owner to clean it up?,1304684.0,1250,41.3143130081,-72.9461369,417.0,Brian Noonan,Registered User,http://bit.ly/1owvqrT,Acknowledged,Illegal Dumping,2014-12-23T12:42:58-05:00,1250,Edgewood
199,2014-09-30T12:50:08-04:00,"150 Adeline Street New Haven, Connecticut",Illegal Dumping,,2014-09-30T12:43:05-04:00,Mattress dumped near city tree and fence on Adeline Street near the Boulevard. Please remove.,1304044.0,1250,41.2932186227,-72.9438647138,6774.0,Department of Public Works,Verified Official,http://bit.ly/1DW1PC2,Acknowledged,Illegal Dumping,2014-09-30T12:50:08-04:00,1250,Hill
200,2014-09-30T12:49:34-04:00,"Eddy St & Frank St New Haven, Connecticut",Illegal Dumping,,2014-09-30T12:40:14-04:00,Pile of furniture has been dumped on strip of land on Eddy Street behind 109 Frank Street. Please pick up before it gets larger.,1304036.0,1250,41.294981,-72.9406245,6774.0,Department of Public Works,Verified Official,http://bit.ly/1DW1kb0,Acknowledged,Illegal Dumping,2014-09-30T12:49:34-04:00,1250,Hill
201,2014-09-29T13:09:41-04:00,"Auburn Street And Sylvan Avenue  New Haven, Connecticut",Illegal Dumping,,2014-09-29T12:06:57-04:00,"Resident reports an illegally dumped pile on Auburn Street, close to the corner of Auburn and Sylvan Avenue. Please send someone to this location to remove the dumped items. ",1302491.0,1250,41.3039989,-72.9453867,6774.0,Department of Public Works,Verified Official,http://bit.ly/1Bwfb42,Acknowledged,Illegal Dumping,2014-09-30T10:30:39-04:00,1250,Hill
202,2014-10-09T09:05:57-04:00,"Valley Street  New Haven, Connecticut",Illegal Dumping,,2014-09-23T19:27:14-04:00,In the first parking lot on Valley across from Blake Street Center there are about 6 black garbage bags dumped at the edge of the woods.  Also a white bucket.  Continuing a little farther down in parking lot is another bucket and remnants of a toilet that have been there for at least 2 months.  Also coming down Valley towards Blake at last curve on right hand side is a large garbage bag.,1295766.0,1250,41.3291895338,-72.9606837378,0.0,cindy,Registered User,http://bit.ly/1ypYLhj,Acknowledged,Illegal Dumping,2014-10-09T09:05:57-04:00,1250,Westville
203,2014-09-22T12:53:34-04:00,"500 Chapel Street New Haven, CT 06511, USA",Illegal Dumping,,2014-09-22T09:53:18-04:00,Tire left by suspicious vehicle reported earlier both to acid an to police non emergency number.  The person answering the phone for the police seemed completely uninterested ,1293078.0,1250,41.303607326,-72.9150455534,32926.0,Frank,Registered User,http://bit.ly/Z9zKY6,Acknowledged,Illegal Dumping,2014-09-22T12:55:12-04:00,1250,Wooster Square/Mill River
204,2014-09-18T11:19:47-04:00,"29-35 Dickerman Street New Haven, CT 06511, USA",Illegal Dumping,,2014-09-18T08:52:26-04:00,Pike international property,1287068.0,1250,41.3156013489,-72.9361801147,98189.0,Frank douglass,Registered User,http://bit.ly/Zrphas,Acknowledged,Illegal Dumping,2014-09-18T11:19:47-04:00,1250,Dixwell
205,2014-09-18T11:49:16-04:00,"583 Edgewood Avenue New Haven, CT 06511, USA",Illegal Dumping,,2014-09-18T07:56:32-04:00,,1287007.0,1250,41.3165206909,-72.9555130005,7225.0,benhv,Verified Official,http://bit.ly/1uWcNBu,Acknowledged,Illegal Dumping,2014-09-18T20:12:17-04:00,1250,Edgewood
206,2014-09-17T08:51:38-04:00,"206 Munson Street New Haven, Connecticut",Illegal Dumping,,2014-09-17T08:35:09-04:00,,1285519.0,1250,41.321709,-72.93133,6774.0,Department of Public Works,Verified Official,http://bit.ly/1mauuOb,Acknowledged,Illegal Dumping,2014-09-17T09:42:41-04:00,1250,Dixwell
207,2014-09-17T08:51:39-04:00,"Front St Near The Intersection Of Bailey St. New Haven, Connecticut",Illegal Dumping,2014-09-17T08:35:07-04:00,2014-09-15T15:15:51-04:00,"At the far end of the park near Bailey St, there are 2 pieces of furniture, that have been dumped over the fence, just under the Middletown Ave Bridge. The pieces are brown or tan in color.",1283301.0,1250,41.3201287553,-72.8900669995,357743.0,Old Goat,Registered User,http://bit.ly/1uB2Bjm,Acknowledged,Illegal Dumping,2014-09-17T21:49:57-04:00,1250,Fair Haven
208,2014-09-17T08:47:13-04:00,"607-687 Edgewood Avenue New Haven, CT 06515, USA",Illegal Dumping,2014-09-17T08:35:07-04:00,2014-09-10T08:17:07-04:00,,1277527.0,1250,41.3169174194,-72.9571151733,7225.0,benhv,Verified Official,http://bit.ly/1tw8FHc,Acknowledged,Illegal Dumping,2014-09-17T09:43:17-04:00,1250,Westville
209,2014-09-17T08:47:13-04:00,"228 East Grand Avenue New Haven, Connecticut",Illegal Dumping,2014-09-17T08:35:07-04:00,2014-09-09T09:42:11-04:00,on railroad property near gate large speaker and bags,1275922.0,1250,41.3058336536,-72.8791155725,353482.0,nova,Registered User,http://bit.ly/1qctKcg,Acknowledged,Illegal Dumping,2014-09-17T09:43:02-04:00,1250,Fair Haven Heights
210,2014-09-18T11:52:42-04:00,"205 Edgewood Avenue New Haven, CT 06511, USA",Illegal Dumping,2014-09-17T08:35:08-04:00,2014-09-09T08:05:34-04:00,,1275634.0,1250,41.3123397827,-72.940246582,7225.0,benhv,Verified Official,http://bit.ly/1p2lfKL,Acknowledged,Illegal Dumping,2014-09-18T11:52:42-04:00,1250,Dwight
211,2014-09-18T11:51:17-04:00,"Martin Luther King Jr. Boulevard Between Howe & Park New Haven, Connecticut",Illegal Dumping,2014-09-17T08:35:08-04:00,2014-09-04T11:32:19-04:00,There is a pile of rotting fish heads (large ones) along the sidewalk on the north side of MLK between Park & Howe Streets laying along the chain link fence on the back side of the high-rise at the corner of Park & MLK. Can the city please come to clean these up? ,1270089.0,1250,41.3066009121,-72.9362401809,4180.0,Andy O,Registered User,http://bit.ly/Whm0Zh,Acknowledged,Illegal Dumping,2014-09-18T11:51:17-04:00,1250,Downtown
212,2014-09-18T11:50:41-04:00,"190 Cedar St. New Haven, Connecticut",Illegal Dumping,2014-09-17T08:35:08-04:00,2014-09-03T20:45:44-04:00,mattresses and miscellaneous furniture dumped on and completely blocking sidewalk at this address.,1269310.0,1250,41.297521,-72.932191,0.0,dumping on New Haven,Registered User,http://bit.ly/1lAEWxR,Acknowledged,Illegal Dumping,2014-09-18T11:50:41-04:00,1250,Hill
213,2014-09-03T11:40:00-04:00,"Springside New Haven, Connecticut",Illegal Dumping,,2014-09-03T10:34:42-04:00,"Several locations along Springside, both sides of the street, south of Common Ground. Building debris, furniture, bagged trash, tires etc.  There is a sofa behind the guardrail on the west side of the street, about 1/4 mi south of Common Ground.
This is  a constant and recurring problem. ",1268263.0,1250,41.3357379718,-72.9585952905,17404.0,Karen Climis,Registered User,http://bit.ly/YbtuyE,Acknowledged,Illegal Dumping,2014-09-17T09:48:10-04:00,1250,West Rock
214,2014-09-15T16:10:00-04:00,"165 Church St. New Haven, Connecticut 06510",Illegal Dumping,,2014-09-03T10:04:45-04:00,"Ever since the city began charging $50 for bulk pickup, there has been a significant uptick in illegal dumping: furniture, tires, TVs, mattresses, etc. can be found on curb strips all over New Haven. The problem “seems” to have gotten even worse since residents no longer can schedule pickups via phone or online, but are required to go to Public Works and pay in person.
So could someone with an insider access to Public Works expenses provide us with a “before” and “after” breakdown?
 Is the city actually saving money by charging for bulk pickups? 
Or is the cost of picking up and disposing of illegal bulk piles throughout the city costing more?
Despite what such research ultimately finds, the significant decline in “quality of life” due to junk piles all over our neighborhoods is indisputable. ",1268223.0,1250,41.3072697,-72.9246129,2974.0,christopher schaefer,Registered User,http://bit.ly/YbpiPo,Acknowledged,Illegal dumping vs free bulk pickup: cost analysis needed,2015-01-28T22:28:17-05:00,1250,Downtown
215,2014-09-18T11:55:43-04:00,"177 Hallock Ave New Haven, Connecticut",Illegal Dumping,,2014-09-02T09:54:48-04:00,Matress dumped on Hallock Ave sidewalk. At the intersection of Hallock & 3rd St.,1266588.0,1250,41.2879591767,-72.9299899936,88377.0,LCI Hill North / Hill South,Verified Official,http://bit.ly/1tqFd9m,Acknowledged,Matress ,2014-09-18T12:35:51-04:00,1250,Long Wharf
216,2014-09-18T12:27:30-04:00,"Fairmont Avenue New Haven, Connecticut",Illegal Dumping,,2014-08-26T17:45:37-04:00,"I am trying to live a decent life raising my kids here. I am tired of pig people dumping their trash on our street. The issue is this is being going on for a long time now, enough is enough. I consider is so much more expensive to be sending a truck every day or every other day to pick up that trash. Just install a camera in that spot in order to get the people that are responsible for this to pay for it. I don't pay taxes to pay for services so that people can be lazy and make others clean after themselves. Same way they come around with a pick up truck to drop off furniture or whatever might be with the same truck they can go to the waste stations designed for that. Let's make our city a better place to live people!!!",1257558.0,1250,41.2967237,-72.8939387,79625.0,Aracelis maldonado,Registered User,http://bit.ly/1vjYBWh,Acknowledged,Enough with the trash,2014-09-18T21:48:20-04:00,1250,Annex
217,,"869-881 Chapel Street New Haven, Connecticut",Illegal Dumping,,2014-08-26T09:30:43-04:00,"I am concerned that the excellent group Bereavement Care Network plans a balloon release at a Sept. 7 event on the Green.  Balloons and ribbons are major water polluters and maim and kill fish and seabirds.  A shockingly high percentage of shoreline garbage is balloons.  Is the release legal?  An act to promote peace in the community will promote violence in the environment, not willfully, but from naivete.",1256250.0,1250,41.3059883968,-72.9255328025,0.0,An anonymous SeeClickFix user,Registered User,http://bit.ly/1zybXMm,Open,Illegal Dumping,2014-08-26T09:30:43-04:00,1250,Downtown
218,2014-09-18T12:29:52-04:00,"62/64 Revere St. New Haven, Connecticut",Illegal Dumping,,2014-08-25T22:20:02-04:00,"I reported illegal dumping here about a month ago and nothing has been done. Every year I would pick up the debris mysellf until last year because I now refuse to. In the past there has been environmentally damaging things such as car batteries, paint cans, spray paint cans and much much more. I can already see one of those big Gatorade jugs that sports teams use for the whole team, what looks like a baby carriage and other garbage being dumped over their fence into the treeline and even farther back into the woods. It was like pulling teeth to get something done last year and I don't have time to keep hounding the city. Start fining these people! Enough already, I'm sick of it. Any city official is welcome to come to my residence and look out my windows for themselves.",1255934.0,1250,41.3017103,-72.8853409,137023.0,Fair Haven Heights Neighbor,Registered User,http://bit.ly/1rw1676,Acknowledged,Illegal Dumping,2014-11-21T08:06:46-05:00,1250,Fair Haven Heights
219,,"2-4 Academy St New Haven, Connecticut",Illegal Dumping,,2014-08-22T18:42:00-04:00,"Dangerous broken glass broken on a park bench.  Lots of kids play here, let alone people walking their pets.",1251867.0,1250,41.3039428,-72.918474,347534.0,rmfarmer85,Registered User,http://bit.ly/1tASSqX,Open,Broken glass,2014-09-17T17:37:30-04:00,1250,Wooster Square/Mill River
220,,"25-27 Kossuth St New Haven, Connecticut",Illegal Dumping,,2014-08-22T12:04:11-04:00,Resident reports illegal dumping on the property and also on the curbside in front of that house.,1251255.0,1250,41.3008049,-72.94053,6774.0,Department of Public Works,Verified Official,http://bit.ly/1nj2J0C,Open,Illegal Dumping,2014-08-22T12:04:11-04:00,1250,Hill
221,,"298 Poplar Street New Haven, Connecticut",Illegal Dumping,,2014-08-22T12:02:47-04:00,Illegal dumping at residence.,1251253.0,1250,41.309992,-72.8976349,6774.0,Department of Public Works,Verified Official,http://bit.ly/1nj2wL1,Open,Illegal Dumping,2014-08-22T15:47:01-04:00,1250,Fair Haven
222,,"366 Central Avenue New Haven, Connecticut",Illegal Dumping,,2014-08-21T15:32:25-04:00,Bulk trash out on the street and resident has not received a bulk trash appointment.,1249371.0,1250,41.319265,-72.962883,6774.0,Department of Public Works,Verified Official,http://bit.ly/1vni85d,Open,Illegal Dumping,2014-08-21T17:05:44-04:00,1250,Westville
223,2014-08-21T15:37:43-04:00,"541 Chapel Street New Haven, CT 06511, USA",Illegal Dumping,,2014-08-21T07:26:28-04:00,Junk left on sidewalk. ,1248529.0,1250,41.3037910461,-72.9170608521,81447.0,Ben,Registered User,http://bit.ly/1qsUMXH,Acknowledged,Illegal Dumping,2015-03-18T11:25:01-04:00,1250,Wooster Square/Mill River
224,2014-08-20T16:23:20-04:00,"Lloyd And River New Haven, Connecticut",Illegal Dumping,,2014-08-20T12:31:58-04:00,"Constant, constant dumping on this street corner - every time I report this, I get the standard message we need to be alert and report license plate numbers, but this is being done in the middle of the night.  Can't the police patrol this on a regular basis?  

There is a mattress - among other things - out there now.
",1247510.0,1250,41.3030052,-72.9001646,0.0,An anonymous SeeClickFix user,Registered User,http://bit.ly/1vhN86T,Acknowledged,Illegal Dumping,2014-09-17T09:49:45-04:00,1250,Fair Haven
225,,"106-118 Bassett Street New Haven, Connecticut",Illegal Dumping,,2014-08-19T11:43:22-04:00,Resident reports illegal dumping at 118 Bassett Street. ,1245967.0,1250,41.3313087,-72.930118,6774.0,Department of Public Works,Verified Official,http://bit.ly/1rT2Tid,Open,Illegal Dumping,2014-08-19T11:43:22-04:00,1250,Newhallville
226,,"40 Wilson St New Haven, Connecticut",Illegal Dumping,,2014-08-19T10:11:22-04:00,2 couches dumped in front of vacant house. ,1245865.0,1250,41.2916987,-72.9381367,88377.0,LCI Hill North / Hill South,Verified Official,http://bit.ly/1rSCUaw,Open,Illegal dumped couches,2014-08-19T10:11:22-04:00,1250,Hill
227,,"300 State Street New Haven, Connecticut",Illegal Dumping,,2014-08-18T23:41:15-04:00,"Dumpster in the parking lot is always overflowing with garbage, the stores that use it don't seem to care.",1244937.0,1250,41.3045296201,-72.9233655776,0.0,An anonymous SeeClickFix user,Registered User,http://bit.ly/1AtzUXu,Open,Illegal Dumping,2014-08-19T07:20:49-04:00,1250,Downtown
228,,"225 East Grand Avenue New Haven, Connecticut",Illegal Dumping,,2014-08-16T11:11:26-04:00,on the railroad property  on access  gate,1241450.0,1250,41.3053694297,-72.8792872286,353482.0,nova,Registered User,http://bit.ly/1sLwGxi,Open,Illegal Dumping,2014-09-17T09:50:16-04:00,1250,Fair Haven Heights
229,2014-08-15T14:00:58-04:00,"200-202 Edgewood Avenue New Haven, CT 06511, USA",Illegal Dumping,,2014-08-15T12:29:50-04:00,Abandon mattress ,1240353.0,1250,41.3122520447,-72.9402313232,7225.0,benhv,Verified Official,http://bit.ly/1uXDPZw,Acknowledged,Illegal Dumping,2014-08-15T14:00:58-04:00,1250,Dwight
230,2014-09-02T11:31:58-04:00,"19 Liberty Street New Haven, Connecticut",Illegal Dumping,,2014-08-15T11:08:25-04:00,TV dumped at the sidewalk near the back of Summit Cleaners.,1240254.0,1250,41.295365177,-72.9299825873,88377.0,LCI Hill North / Hill South,Verified Official,http://bit.ly/1uXlZpE,Acknowledged,Illegal Dumping,2014-09-02T11:31:59-04:00,1250,Hill
231,,"224-226 East Grand Ave New Haven, Connecticut",Illegal Dumping,,2014-08-15T10:26:07-04:00,Resident reports illegal dumping in front of 224-226 East Grand Ave. ,1240191.0,1250,41.3054974,-72.8794392,6774.0,Department of Public Works,Verified Official,http://bit.ly/1uXaZbQ,Open,Illegal Dumping,2014-08-15T10:26:07-04:00,1250,Fair Haven Heights
