,acknowledged_at,address,closed_at,created_at,description,id,lat,lng,reporter_id,reporter_name,reporter_role,shortened_url,status,summary,updated_at
0,,"204-210 Edgewood Avenue New Haven, CT 06511, USA",,2015-04-10T08:41:59,Can the secondary question of block be removed? It seems redundant.,1582951,41.312335968,-72.9406585693,2,Ben,Admin,http://bit.ly/1chAu3J,Open,Potholes,2015-04-10T08:41:59
1,,"331-341 Clifton Street New Haven, CT 06513, USA",,2015-04-09T17:57:21,Huge pothole and collapsed curb at intersection,1581476,41.3085632496,-72.8738286258,92781,Tech75,Registered User,http://bit.ly/1Ix47eT,Open,Potholes,2015-04-10T06:32:48
2,,"63-85 Eastern Street New Haven, CT 06513, USA",,2015-04-09T17:55:14,Deep hole 4 feet long,1581470,41.3086473043,-72.873723508,92781,Tech75,Registered User,http://bit.ly/1Ix3JwH,Open,Potholes,2015-04-09T17:55:14
3,,"338 Clifton Street New Haven, CT 06513, USA",,2015-04-09T17:53:00,Huge hole from a failed patch,1581466,41.3085810826,-72.8738227977,92781,Tech75,Registered User,http://bit.ly/1Ix3m5g,Open,Potholes,2015-04-10T06:32:32
4,2015-04-09T14:11:45,"127 Foxon Hill Road New Haven, Connecticut",,2015-04-09T13:27:33,very deep pothole ,1580910,41.3315995297,-72.864817534,0,Lulu,Registered User,http://bit.ly/1FnoTN2,Acknowledged,Pothole,2015-04-09T14:11:45
5,2015-04-09T13:26:19,"Legion Avenue Between Sherman And Dwight New Haven, Connecticut",,2015-04-09T08:58:36,"multiple very deep potholes on this stretch of Legion Avenue, in the right hand lane.  In trying to avoid one this morning, I nearly caused an accident.",1580260,41.3061098828,-72.9431376958,0,An anonymous SeeClickFix user,Registered User,http://bit.ly/1aNgHZx,Acknowledged,Potholes,2015-04-09T13:26:19
6,2015-04-09T13:23:42,"Yale University 310 Crown Street, New Haven, CT 06510, USA",,2015-04-08T19:13:09,Potholes all along this block.,1579172,41.3069381714,-72.9321060181,2,Ben,Admin,http://bit.ly/1CquRp8,Acknowledged,Potholes,2015-04-09T13:23:42
7,2015-04-09T13:23:23,"Intersection Of Rte 34 And Boulevard  Turning Right To Continue On 34 Towards West Haven New Haven, Connecticut",,2015-04-08T17:16:53,large pothole that is along a seam of pavement,1578969,41.3063419806,-72.9528075868,0,Elmone,Registered User,http://bit.ly/1Cq3gV2,Acknowledged,Potholes,2015-04-09T13:23:23
8,2015-04-08T15:14:01,"Orchard Street New Haven, Connecticut",,2015-04-08T13:17:07,"starrting from martin luther king blvd down orchad street to goffe street that entire strip is horrible.. tgrying to avoid bumps, holes you have to drive in the outgoing lane and risk an accident or ticket. Not to mention yale employees use this route to work going to Saint Ray's and or main campus Yale...its an eye sore and dangerous. and patch up gravel isnt working look at the corner of orchard and edgewood.",1578394,41.3124356377,-72.9241595115,0,An anonymous SeeClickFix user,Registered User,http://bit.ly/1CVl79O,Acknowledged,Potholes,2015-04-08T15:14:01
9,2015-04-08T12:18:33,"510 State Street New Haven, Connecticut",2015-04-09T16:43:30,2015-04-08T11:45:41,A large chunk of fill previous road work is gone leaving a hole that gets larger every day.,1578194,41.3071570065,-72.9208979453,0,An anonymous SeeClickFix user,Registered User,http://bit.ly/1GLcrFC,Closed,Potholes,2015-04-09T16:43:30
10,2015-04-08T12:19:58,"186-204 Bradley Street New Haven, CT 06511, USA",,2015-04-08T11:32:08,terrible set of multiple potholes/concrete fractures 10-25 feet of very rough road,1578168,41.3130631409,-72.9182016167,917642,anastasialiving,Registered User,http://bit.ly/1GL8Ib2,Acknowledged,Potholes,2015-04-08T17:22:50
11,2015-04-08T10:46:15,"300 State Street New Haven, CT 06510, USA",2015-04-09T16:46:16,2015-04-07T19:07:55,,1576275,41.3042030334,-72.9233093262,2,Ben,Admin,http://bit.ly/1ybKrd5,Closed,Potholes,2015-04-09T16:56:29
12,2015-04-07T17:21:02,"16 Chester St Through 35 Chester Street  New Haven, Connecticut",,2015-04-07T16:20:22,Entire street filled with huge potholes from 16 Chester street until 36 chester street. About 15 potholes between 16 and 19 Chester street alone and all the way through number 36. The entire street needs resurfacing. When will this occur? This issue has been neglected for years. ,1575973,41.291159,-72.889918,0,Pothole City,Registered User,http://bit.ly/1Cbyujv,Acknowledged,Pot holes/street needs repaving,2015-04-09T10:00:38
13,2015-04-07T17:20:45,"Livingston Street And East Rock Road New Haven, Connecticut",,2015-04-07T15:54:36,Potholes located at the address. ,1575925,41.3304748,-72.9102931,6774,Department of Public Works,Verified Official,http://bit.ly/1FcFnaz,Acknowledged,Potholes,2015-04-07T17:20:45
14,2015-04-07T17:19:35,"Corner Of Russell Street And Warwick Street New Haven, Connecticut",,2015-04-07T14:36:18,"The intersection of Russell and Warwick Streets is riddled with
deep potholes making it difficult to drive over or around.  Also,
the asphalt curbing running from the corner of Russell and Warwick Street towards Townsend Avenue is torn up from the 
snow plows over the past winter.  ",1575716,41.2970007,-72.8880429,0,An anonymous SeeClickFix user,Registered User,http://bit.ly/1Fcnglf,Acknowledged,Potholes and curb damage,2015-04-07T17:19:35
15,2015-04-07T13:33:31,431 Ellsworth Ave New Haven CT. 06511,,2015-04-07T13:30:33,The potholes on this street are HUGE throughout the whole street of Ellsworth Ave. ,1575462,41.3217663,-72.9456787,1042755,Tax payer,Registered User,http://bit.ly/1Fc3QwF,Acknowledged,Potholes,2015-04-09T13:48:34
16,2015-04-07T11:26:18,"1611 Ella T Grasso Boulevard New Haven, Connecticut",,2015-04-07T11:05:41,Several potholes in the intersection of Goffe and Ella Grasso. Need patching. Additional deep pothole near Ella Grasso & Crescent Street,1575045,41.3231971477,-72.9487775662,6774,Department of Public Works,Verified Official,http://bit.ly/1agvZ8c,Acknowledged,Potholes,2015-04-07T11:26:18
17,2015-04-07T11:25:35,"1-13 Elizabeth Street New Haven, Connecticut",2015-04-09T12:36:44,2015-04-07T10:59:35,Deep pothole near on Elizabeth near corner of Dixwell Avenue. Bus keeps sinking in it. Rattles houses. Please patch.,1575032,41.3348875413,-72.9353850677,6774,Department of Public Works,Verified Official,http://bit.ly/1agtNNY,Closed,Potholes,2015-04-09T12:36:44
18,2015-04-07T11:25:06,"7 Gregory St New Haven, Connecticut",2015-04-09T16:59:00,2015-04-07T10:56:46,Small Street-Gregory Street- between Ashmun and Canal has deep pothole in middle of the street. Please patch,1575027,41.3194057,-72.9298458,6774,Department of Public Works,Verified Official,http://bit.ly/1agt2EC,Closed,Potholes,2015-04-09T16:59:00
19,2015-04-07T11:24:46,"1241 Townsend Avenue New Haven, Connecticut",,2015-04-07T10:53:43,"Few weeks ago, pothole in front of 1235 Townsend were patched but the rest of the area from Irvington Street to Ashland Place is a mess of potholes. Please revisit.. ",1575020,41.290549435,-72.8921460079,6774,Department of Public Works,Verified Official,http://bit.ly/1ags8bl,Acknowledged,Potholes,2015-04-07T11:24:46
20,2015-04-07T11:21:24,"Chapel Street New Haven, Connecticut",,2015-04-07T10:24:14,Giant pot hole pavement smears caused by buses.  Very dangerous for bike riders.,1574889,41.3058805672,-72.9253758798,0,An anonymous SeeClickFix user,Registered User,http://bit.ly/1agiqFY,Acknowledged,Potholes,2015-04-07T11:21:24
21,2015-04-07T11:20:57,"429 Ellsworth Ave New Haven, Connecticut",2015-04-09T16:50:24,2015-04-07T09:52:46,"Large craters...please fill

Tis' the season!!!",1574827,41.3215999,-72.945347,0,An anonymous SeeClickFix user,Registered User,http://bit.ly/1GHECVT,Closed,Potholes,2015-04-09T16:50:24
22,2015-04-06T17:59:59,"Woodland & Mansfield New Haven, Connecticut",,2015-04-06T16:19:57,Potholes begin at intersection of Mansfield and Woodlawn and are up to #26 Woodland Street- both sides of the street.,1574016,41.3192496616,-72.9260595979,6774,Department of Public Works,Verified Official,http://bit.ly/1CMh3st,Acknowledged,Potholes,2015-04-06T18:00:00
23,2015-04-06T17:59:25,"Springside Avenue New Haven, Connecticut",,2015-04-06T16:14:02,Potholes that were filled in on Springside Avenue have come out again with all the traffic. Please return to location and repatch.,1574008,41.3344007,-72.9566641,6774,Department of Public Works,Verified Official,http://bit.ly/1CMfdrx,Acknowledged,Potholes,2015-04-06T17:59:25
24,,"258 Willow St New Haven, CT",,2015-04-06T12:05:55,When are the potholes going to be filled on willow st between whitney ave and orange st...they have been there since the storms in 2013...Its 2years too long...they are horrible....Is the city going to pay for car and tire damage because they are neglecting the neighborhood?,1573425,41.3224316,-72.9126584,0,maritza,Registered User,http://bit.ly/1DEQDwq,Open,bad streets,2015-04-06T16:51:41
25,2015-04-06T15:17:43,"Lodge St  New Haven, Connecticut",,2015-04-06T11:57:37,,1573401,41.3442197,-72.9620871,0,concerned residents ,Registered User,http://bit.ly/1DEPswU,Acknowledged,Potholes,2015-04-06T15:17:43
26,2015-04-06T10:36:53,"Maltby Street New Haven, Connecticut",,2015-04-05T23:00:05,There are several massive potholes on maltby street starting at maltby and pine and continuing down maltby. they are deep and cars have to go around them when driving and its hard because it's a two way road. they need to be fixed immediately.,1572791,41.3150496,-72.8903104,0,An anonymous SeeClickFix user,Registered User,http://bit.ly/1Fet748,Acknowledged,Potholes,2015-04-06T23:32:59
27,2015-04-06T10:31:00,"Pearl St New Haven, Connecticut",,2015-04-05T14:28:09,Was filled but filling came out. On pearl near orange,1572347,41.3140237,-72.9159608,36163,Lisa,Registered User,http://bit.ly/1NTZ4p1,Acknowledged,Potholes,2015-04-06T10:31:00
28,2015-04-06T10:28:12,"2-8 Donna Drive New Haven, CT 06513, USA",2015-04-09T12:27:42,2015-04-05T12:41:06,Several potholes and bumps at the intersection ,1572089,41.3255576977,-72.8787696561,92781,Tech75,Registered User,http://bit.ly/1NTIfui,Closed,Potholes,2015-04-09T12:27:42
29,2015-04-06T10:26:45,"25 Donna Drive New Haven, CT 06513, USA",2015-04-09T12:29:46,2015-04-05T12:38:11,Two deep holes near the hydrant ,1572086,41.3259137175,-72.8779309346,92781,Tech75,Registered User,http://bit.ly/1NTHNMH,Closed,Potholes,2015-04-09T12:29:46
30,2015-04-06T10:25:07,"2033-2045 Chapel Street New Haven, CT 06515, USA",,2015-04-05T11:49:38,,1572057,41.3163146973,-72.9668121338,2,Ben,Admin,http://bit.ly/1NTzwIl,Acknowledged,Potholes,2015-04-06T10:25:07
31,2015-04-06T10:15:08,"471 Central Avenue New Haven, CT 06515, USA",,2015-04-05T09:39:43,,1571984,41.3220367432,-72.9615859985,2,Ben,Admin,http://bit.ly/1JaiFhV,Acknowledged,Potholes,2015-04-06T10:15:08
32,2015-04-06T10:05:36,"Willow St And Anderson St New Haven, CT",,2015-04-05T09:27:37,Big pothole on road by Archie's bar,1571979,41.3214843,-72.910416,0,Eilon Caspi,Registered User,http://bit.ly/1Jag33J,Acknowledged,Pothole,2015-04-06T10:05:36
33,2015-04-06T10:04:08,"Central Avenue At Fountain Street New Haven, Connecticut",,2015-04-04T13:27:15,This was reported last month and DPW notified that it was fixed and closed.  Look at the attached recent picture.  Does this look fixed?  This needs a complete repair!,1571435,41.3262399,-72.9600332,177481,cs,Registered User,http://bit.ly/1Iyv8uO,Acknowledged,Potholes,2015-04-07T11:02:53
34,2015-04-06T09:59:40,"320 Canner Street  New Haven, Connecticut",,2015-04-04T12:56:02,Potholes up and down this street,1571413,41.325005,-72.919455,0,CPH,Registered User,http://bit.ly/1Iyrpxw,Acknowledged,Potholes,2015-04-06T09:59:41
35,2015-04-06T09:58:01,"Brewery St. New Haven, Connecticut",,2015-04-03T17:23:26,"2 monster pot holes on brewery st., in front of post office customer entrance.  please fix I hit em both very hard",1570831,41.2979909,-72.9200839,0,An anonymous SeeClickFix user,Registered User,http://bit.ly/1ESCXxP,Acknowledged,Potholes,2015-04-06T09:58:01
36,2015-04-06T09:57:41,"508-516 Lighthouse Road New Haven, Connecticut",,2015-04-03T08:35:01,They got the one in front of Anthony's but they missed the one in front of the firehouse. ,1570098,41.257696266,-72.8914344942,0,An anonymous SeeClickFix user,Registered User,http://bit.ly/1Go6IFF,Acknowledged,Potholes,2015-04-06T09:57:41
37,,"92 Livingston Street New Haven, CT 06511, USA",,2015-04-03T07:23:34,This road is slowly breaking my car. It looks like asteroids and meteors bombarded it for a hundred years.  ,1570049,41.3216400146,-72.915184021,1035712,David McCarthy,Registered User,http://bit.ly/1GnND6h,Open,Potholes,2015-04-06T09:57:12
38,2015-04-06T09:53:08,"Corner Of Alden And Edgewood And In Front Of 84 Alden New Haven, CT",,2015-04-02T21:42:56,potholes at the corner of Alden and Edgewood and in front of 84 Alden,1569935,41.308274,-72.9278835,0,Westville,Registered User,http://bit.ly/1aoXSvJ,Acknowledged,The potholes of spring,2015-04-06T09:53:08
39,2015-04-06T09:52:43,"Howe Street  New Haven, Connecticut",,2015-04-02T20:41:49,"Large pothole in right hand lane near YMCA, Large enough to break an axel!",1569879,41.3093007,-72.93545,0,An anonymous SeeClickFix user,Registered User,http://bit.ly/1aoQmAW,Acknowledged,HUGE Pothole,2015-04-06T09:52:43
40,2015-04-02T16:43:16,"102 Judson Ave New Haven, Connecticut",,2015-04-02T15:43:21,Judson Ave from the Blvd to Winthrop Ave has a bunch if potholes .... some if them are very deep .... please put on the list to rectify issue .....,1569440,41.3079394,-72.9520223,1034297,Joey,Registered User,http://bit.ly/1BV3Nz8,Acknowledged,Potholes,2015-04-02T16:43:16
41,2015-04-02T16:43:46,"400 Norton Parkway New Haven, Connecticut",,2015-04-02T14:53:14,A couple of deep potholes in the road. Please fix.,1569346,41.3219248655,-72.9437603042,140664,Alina,Registered User,http://bit.ly/1BUS43w,Acknowledged,Potholes,2015-04-02T16:43:47
42,,"Legion Avenue new haven, Connecticut",,2015-04-02T12:49:55,"Huge pothole, I hit it while driving back to work around 2:05 p.m.  on March 31.  , Damaged my tire, and want to be reimbursed.",1569073,41.3060130283,-72.9420615476,1034026,Robert Tessier,Registered User,http://bit.ly/1IsANCx,Open,Potholes,2015-04-06T22:41:14
43,2015-04-02T11:17:50,"11 Hubinger Street New Haven, Connecticut",,2015-04-02T09:52:37,,1568568,41.3175897481,-72.9551560185,0,Guest,Registered User,http://bit.ly/1NDS5OL,Acknowledged,Potholes,2015-04-02T11:17:50
44,2015-04-02T11:17:12,"Congress Ave And South Frontage Road New Haven, Connecticut",2015-04-09T16:48:15,2015-04-02T09:44:55,"I swear, it must be 6 inches deep!",1568526,41.3028093,-72.9299667,736993,Jessica,Registered User,http://bit.ly/1NDQRTQ,Closed,Scary Pothole,2015-04-09T16:48:15
45,2015-04-02T11:15:06,"42 Pine Street New Haven, CT 06513, USA",2015-04-07T09:17:23,2015-04-01T20:24:54,Multiple holes start at intersection of pone and maltby then continues down maltby on the right side,1566947,41.3130656756,-72.8898166748,1012269,Karen saint john,Registered User,http://bit.ly/1GNgDVD,Closed,Potholes,2015-04-07T09:17:23
46,,"Pine Rock Avenue New Haven, Connecticut",,2015-04-01T20:18:59,"There are some serious potholes running the entire length of Pine Rock Ave in New Haven.  I drive up and down this street every day and busted my front right axle going through one of these potholes.  The Hamden side of the road is paved, but the New Haven side is practically undriveable.  This entire road needs to be re-paved on the New Haven side, all the way to Fitch St - it's a safety issue and it's terrible for our vehicles!  Please fix this!",1566940,41.3347120412,-72.9473522762,0,Valen G,Registered User,http://bit.ly/1GNfqxx,Open,MAJOR Potholes,2015-04-01T20:23:42
47,2015-04-02T11:14:23,"222-242 Peck Street New Haven, CT 06513, USA",2015-04-07T09:15:50,2015-04-01T18:38:03,Deep hole surrounded by very mottled and rough area. Extends from 220 to 210 Peck. ,1566743,41.3161674809,-72.896489775,92781,Tech75,Registered User,http://bit.ly/1GMVNpn,Closed,Potholes,2015-04-07T09:15:50
48,2015-04-01T15:24:20,"1-9 Congress Avenue New Haven, CT 06519, USA",,2015-04-01T14:07:28,,1566232,41.3027906966,-72.9301453491,985339,Player1024,Registered User,http://bit.ly/1Ini6Aq,Acknowledged,Potholes,2015-04-01T21:26:08
49,2015-04-01T12:21:58,"Orchard Street New Haven, Connecticut",2015-04-09T11:41:48,2015-04-01T11:05:08,Potholes on Orchard Street from Whalley to Dickerman Street need to be patched.,1565693,41.316023619,-72.938905696,6774,Department of Public Works,Verified Official,http://bit.ly/1aiUVN8,Closed,Potholes,2015-04-09T11:41:48
50,2015-04-01T12:11:32,"Sperry St  New Haven, Connecticut",2015-04-09T17:04:06,2015-04-01T11:00:21,Sperry Street from Whalley Avenue to Goffe Street is filled with potholes.,1565684,41.3151343,-72.9351642,6774,Department of Public Works,Verified Official,http://bit.ly/1aiU3bo,Closed,Potholes,2015-04-09T17:04:06
51,2015-04-01T12:10:32,"19 Read St New Haven, Connecticut",2015-04-02T10:14:44,2015-04-01T10:09:52,Pothole located in front of 19 Read Street needs patching.,1565427,41.332765,-72.925951,6774,Department of Public Works,Verified Official,http://bit.ly/1CwWwIc,Closed,Potholes,2015-04-06T18:45:19
52,2015-04-01T12:10:18,"Whalley Ave & Orchard St New Haven, Connecticut",2015-04-09T11:45:06,2015-04-01T10:08:07,At Whalley & Orchard Street Bus Stop near Auto Zone side there is a pothole needing patch.,1565420,41.3155235,-72.9392163,6774,Department of Public Works,Verified Official,http://bit.ly/1CwWdgy,Closed,Potholes,2015-04-09T11:45:06
53,2015-04-01T12:08:18,"Orchard & Whalley New Haven, Connecticut",2015-04-09T11:46:28,2015-04-01T09:51:26,CVS driveway apron on the Orchard Street side has large pothole. Needs patching,1565387,41.3155235,-72.9392163,6774,Department of Public Works,Verified Official,http://bit.ly/1CwTnbw,Closed,Potholes,2015-04-09T11:46:28
54,2015-04-01T12:08:07,"Orchard & Goffe St New Haven, Connecticut",2015-04-09T12:08:41,2015-04-01T09:46:57,Potholes are running along the curb line of Orchard and Goffe. Please patch. ,1565378,41.317836,-72.9377574,6774,Department of Public Works,Verified Official,http://bit.ly/1CwSzDt,Closed,Potholes,2015-04-09T12:08:41
55,2015-04-01T12:07:53,"Charles Street New Haven, Connecticut",2015-04-09T17:05:58,2015-04-01T09:44:32,Potholes are present throughout all of Charles Street.,1565369,41.3191771,-72.9353551,6774,Department of Public Works,Verified Official,http://bit.ly/1CwShfM,Closed,Potholes,2015-04-09T17:05:58
56,2015-04-01T08:24:59,"64-70 Ellsworth Avenue New Haven, CT 06511, USA",2015-04-02T16:39:39,2015-03-31T18:03:20,,1564768,41.3125152588,-72.9504928589,2,Ben,Admin,http://bit.ly/19GoR4l,Open,Potholes,2015-04-02T20:50:52
57,2015-03-31T16:21:50,"Ella Grasso Bloulevard & Goffe Terrace New Haven, Connecticut",,2015-03-31T15:18:27,Several potholes in the intersection difficult to pass,1564451,41.3231883,-72.9487883,6774,Department of Public Works,Verified Official,http://bit.ly/1GJharL,Acknowledged,Potholes,2015-04-02T14:53:58
58,2015-03-31T16:25:00,"415 Ellsworth Avenue New Haven, Connecticut",,2015-03-31T14:07:36,Many deep potholes all down Ellsworth Avenue after Goffe Terrace driving towards Whalley Avenue.  Almost impossible to drive down the street. ,1564304,41.321185,-72.945489,0,Juan Perez,Registered User,http://bit.ly/1GJ9BRC,Acknowledged,Potholes,2015-04-02T14:53:52
59,2015-03-31T16:25:47,"Knollwood Drive New Haven, Connecticut",2015-04-07T09:29:02,2015-03-31T13:19:16,"Resident put in a complaint about potholes DPW repaired only one of many,  the entire street has potholes, why is that!!!!",1564201,41.3224866,-72.9746376,6774,Department of Public Works,Verified Official,http://bit.ly/1BMs8a7,Closed,Potholes,2015-04-07T09:29:02
60,2015-03-31T16:29:42,"Lloyd Street New Haven, Connecticut",,2015-03-31T12:23:27,"Multiple potholes, large and small, all throughout Lloyd Street, especially in the area between Chapel Street & Grand Avenue. Potholes are not only causing damages to cars and tires, but can also lead to accidents as cars swerve to avoid them. Please patch them up as soon as possible. Thanks",1564069,41.3060793,-72.900598,68664,Office of Legislative Services,Registered User,http://bit.ly/1xTtfce,Acknowledged,Potholes,2015-03-31T16:29:42
61,2015-03-31T16:06:11,"188 Willow St New Haven, Connecticut",,2015-03-31T11:13:41,"As has been previously reported, Willow Street is riddled with potholes after this winter. A particularly large and dangerous hole exists near the Willow/Anderson intersection close to the Archie's parking lot, but the entire section through to the Shell station needs significant patching work.",1563884,41.3214225,-72.910566,918566,beastrock,Registered User,http://bit.ly/1NDQsm3,Acknowledged,Potholes - Willow St from Anderson to Nicoll,2015-03-31T16:11:23
62,2015-03-31T16:13:40,"Ramsdell Street New Haven, Connecticut",2015-04-07T09:25:06,2015-03-31T09:55:54,"I do not have a specific address, but the entire street from Valley to Fountain is a mess. Please dispatch service workers to fill all pot holes and dips in the road. ",1563662,41.3305259,-72.9775413,14562,Alderman Darryl Brackeen Jr,Registered User,http://bit.ly/1xvrf9y,Closed,Potholes need Immediate Attention,2015-04-07T09:25:06
63,2015-03-31T16:18:10,"154 Fairfield Street New Haven, Connecticut",2015-04-07T09:39:19,2015-03-31T09:53:52,"I am inputting this item showing one pothole, but Fairfield Street needs a once over. Please ride down Fairfield and fill all potholes, as there are many. ",1563656,41.3295463,-72.973957,14562,Alderman Darryl Brackeen Jr,Registered User,http://bit.ly/1xvqVaO,Closed,Potholes,2015-04-07T09:39:20
64,2015-03-31T16:19:28,"140 Fowler Street New Haven, Connecticut",2015-04-07T09:35:43,2015-03-31T09:48:00,"There are several deep potholes that line this intersection. I am only allowed to upload one picture, but there are at least 4. ",1563644,41.3356215,-72.977753,14562,Alderman Darryl Brackeen Jr,Registered User,http://bit.ly/1xvpJEn,Closed,Potholes Need Immediate Attention,2015-04-07T18:24:07
65,2015-03-31T16:20:05,"1 Goffe Terrace New Haven, Connecticut",2015-04-09T17:02:12,2015-03-31T09:28:45,Lots and lots of large and deep pot holes in the Westbound travel lane on Goffe. Both sides of the intersection with Carmel Street. From Sherman to Winthrop. ,1563594,41.3205824264,-72.9413149203,0,An anonymous SeeClickFix user,Registered User,http://bit.ly/1xvm6hQ,Closed,Potholes,2015-04-09T17:02:12
66,2015-03-31T16:05:05,"Whitney Ave & Edwards St New Haven, Connecticut",,2015-03-31T08:41:26,Large pothole at the intersection of Whitney & Edwards,1563459,41.3195989,-72.9188698,0,An anonymous SeeClickFix user,Registered User,http://bit.ly/1xvgbJq,Acknowledged,Potholes,2015-03-31T16:05:05
67,2015-03-30T16:06:17,"Fairmont Ave  New Haven, Connecticut",2015-04-07T09:20:35,2015-03-30T15:10:43,"From Fairmount Ave right down to Forbes Ave the pot holes are like driving through a mine field. Something has to be done. Been pointing this stretch for years and nothing is getting done. ""NOTHING""! ",1561282,41.2967237,-72.8939387,5248,dmrowka,Registered User,http://bit.ly/1abCoSL,Closed,Potholes,2015-04-07T09:20:35
68,2015-03-30T16:06:49,"422 West Rock Ave New Haven, Connecticut",,2015-03-30T13:00:27,Please pave Geoff St. Went into a pot hole and didn't think I was coming out. The entire street is horrible. Also the end of West Rock Ave which intersects Whalley Ave on the Tour Ave side  of West Rock Ave. Thanks,1560970,41.3103725899,-72.9241595115,0,An anonymous SeeClickFix user,Registered User,http://bit.ly/1NuPYg9,Acknowledged,Potholes,2015-03-30T16:06:49
69,2015-03-30T16:08:04,"130 Hamilton Street New Haven, Connecticut",2015-04-09T13:50:46,2015-03-30T11:22:59,"The road is sinking at the entrance to 130 Hamilton Street..  This is causing problems for the individuals who work at the facility located there in addition to their customers complaining that their cars are being damaged. We would like to have the city look at this and get it repaired as soon as possible.

Thank you
Property Owner
Salem Heignts",1560603,41.307181,-72.9131589,0,Donna Skurja,Registered User,http://bit.ly/1GH0bGv,Closed,Potholes,2015-04-09T13:50:46
70,2015-03-30T16:08:30,"Irving Street New Haven, Connecticut",,2015-03-30T10:46:31,Severe pot holes on Irving street.,1560445,41.3117539,-72.9508281,0,Irving Street Resident,Registered User,http://bit.ly/1GGVaxy,Acknowledged,Potholes,2015-03-30T16:08:30
71,2015-03-30T16:05:04,"703 Whitney Avenue  New Haven, Connecticut",,2015-03-30T09:31:36,Deep pothole reported in front of the Red Cross building. Please send a crew to patch the hole asap ,1560123,41.3294359,-72.9135585,6774,Department of Public Works,Verified Official,http://bit.ly/1yswORb,Acknowledged,Potholes,2015-03-30T16:05:04
72,2015-03-30T08:55:09,"143 Rowe Street New Haven, CT 06513, USA",,2015-03-30T06:17:20,Huge pothole after a pockmarked surface ,1559906,41.3169520602,-72.8957736474,92781,Tech75,Registered User,http://bit.ly/1G7ROTP,Acknowledged,Potholes,2015-03-30T08:55:10
73,2015-03-30T08:55:10,"Farnam Drive New Haven, CT 06511, USA",2015-04-02T10:17:15,2015-03-29T22:10:35,So dangerous for biking!,1559822,41.3276434587,-72.9082347674,1025128,Ross b,Registered User,http://bit.ly/1IIzxfy,Open,Potholes,2015-04-09T17:19:27
74,2015-03-30T16:02:52,"111 Linden Street New Haven, CT 06511, USA",,2015-03-29T13:00:10,https://instagram.com/p/00akgzrX5M #instagram,1559298,41.321983643,-72.913698828,1011161,Hashtag SeeClickFix,Admin,http://bit.ly/1FZwukI,Acknowledged,Testing for scf #seeclickfix #pothole,2015-03-30T16:02:52
75,2015-03-30T08:55:10,"Whitney Avenue Between cold spring street and canner street, New Haven, Connecticut",,2015-03-29T11:33:54,Significantly deep potholes in the right northbound lane on Whitney Avenue between Canner St and Cold Spring Street.  Completely tore open my front right tire side wall.  ,1559238,41.3241841,-72.9147058,0,Brad J,Registered User,http://bit.ly/1FZgrDz,Acknowledged,Potholes,2015-03-30T08:55:10
76,2015-03-30T08:55:10,"375 Canner Street  New Haven, Connecticut",,2015-03-29T01:27:49,Potholes are up and down this street ,1559054,41.32592,-72.921417,0,CPH,Registered User,http://bit.ly/1OLYWsP,Acknowledged,Potholes,2015-03-30T08:55:10
77,2015-03-30T08:55:10,"141 Willow Street New Haven, Connecticut",,2015-03-28T19:56:41,These holes are on both sides of the gas station,1558836,41.3207316,-72.9078307,0,CPH,Registered User,http://bit.ly/1I6cVET,Acknowledged,Potholes,2015-03-30T08:55:10
78,2015-03-30T08:55:10,"153 Fairmont Avenue New Haven, Connecticut",,2015-03-28T11:45:59,"On Fairmont ave between 153 and 159 potholes line both sides of the street! Some deep and others upheaved tar, but it is a driving hazard! This is a second request for repair. Please can you help???",1558214,41.297311,-72.893586,0,Ozzy,Registered User,http://bit.ly/1BEf6eO,Acknowledged,Multiple potholes line the street,2015-03-30T08:55:10
79,,"363 Crown Street New Haven, Connecticut",2015-03-28T09:32:25,2015-03-28T09:30:56,"KH - my apologies, i'm doing a test, please disregard - DH",1558037,41.3077892618,-72.9338649534,60,"Doug Hausladen, Director of Transportation",Verified Official,http://bit.ly/1Eg38y7,Open,Potholes - Test,2015-03-28T09:57:30
80,2015-03-30T08:55:10,"Springside Ave New Haven, Connecticut",,2015-03-28T09:29:18,In front of Common Ground high school. Lots of unsafe potholes.,1558035,41.3344007,-72.9566641,0,patty,Registered User,http://bit.ly/1Eg2TDg,Acknowledged,potholes,2015-03-31T13:21:52
81,2015-03-30T08:55:10,Grand Ave And E Pearl St,,2015-03-27T17:36:06,Crumbling asphalt surrounding utility man hole cover. ,1556707,41.3092976686,-72.891476204,92781,Tech75,Registered User,http://bit.ly/1I01jmG,Acknowledged,Potholes,2015-03-30T08:55:11
82,2015-03-27T16:28:23,"38 Bright Street New Haven, Connecticut",,2015-03-27T16:10:58,Bright Street from Grand Ave midway to Pine St. numerous potholes that were patched yesterday (3/26) but because of the rain it washed the patch away on most of the holes,1556596,41.31016,-72.894782,0,Herbert,Registered User,http://bit.ly/1HZsGx2,Acknowledged,Potholes,2015-03-27T16:28:23
83,2015-03-27T16:29:13,"478 Blatchley Ave  New Haven, Connecticut",,2015-03-27T16:05:22,"Blatchley Ave from Peck St north to the railroad bridge, several potholes exist. many prior to the snow are now deeper ",1556582,41.3155339,-72.9009095,0,An anonymous SeeClickFix user,Registered User,http://bit.ly/1FT5raF,Acknowledged,Potholes,2015-03-27T21:56:36
84,2015-03-27T16:27:41,"Connecticut Ave New Haven, Connecticut",,2015-03-27T15:36:40,Major potholes along Connecticut Ave. Some will destroy the front end of a car.,1556509,41.2865459,-72.9005567,417677,Peter Zaino,Registered User,http://bit.ly/1FSXYZr,Acknowledged,Potholes,2015-03-27T18:18:21
85,2015-03-27T16:10:43,"East Shore Parkway New Haven, Connecticut",,2015-03-27T13:29:06,Numerous potholes on East Shore Parkway that need to be patched as soon as possible.,1556239,41.2890261,-72.9017415,6774,Department of Public Works,Verified Official,http://bit.ly/1yjCJrE,Acknowledged,Potholes,2015-03-27T16:10:43
86,2015-03-27T16:10:07,"16 Farnham Ave New Haven, Connecticut",,2015-03-27T12:25:39,Resident reports his driveway apron is damaged. The gap connecting his driveway and the street is chipping away quickly. Please assess the issue as soon as possible. ,1556050,41.329096,-72.954593,6774,Department of Public Works,Verified Official,http://bit.ly/1yjltD8,Acknowledged,Damaged Driveway Apron,2015-03-27T16:10:07
87,2015-03-27T16:41:56,"180 Hamilton Street New Haven, Connecticut",2015-03-27T09:54:02,2015-03-27T09:50:09,I currently work at Rexel located at 180 Hamilton Street in new haven. The potholes on the street are causing damage to the customers' cars entering the driveway. If you could assess the problem it would be much appreciated,1555555,41.3092808,-72.9122733,1020845,Scott FitzSimons,Registered User,http://bit.ly/1H5orA5,Acknowledged,Potholes,2015-03-27T16:41:56
88,2015-03-27T16:42:53,"Quinnipiac Ave & Pardee Street New Haven, Connecticut",,2015-03-27T09:38:03,Unavoidable potholes on the entire street. Large deep potholes,1555395,41.2982350376,-72.8902636955,6774,Department of Public Works,Verified Official,http://bit.ly/1H5kHP5,Acknowledged,Potholes,2015-03-27T16:44:16
89,2015-03-27T09:25:08,"22-42 Humphrey Street New Haven, CT 06511, USA",,2015-03-27T00:58:43,From James & Lombard all the way up to Humphrey & east. Holy potholes... Now way to.avoid them..m....,1555081,41.3137725927,-72.9054368008,0,Ladybug,Registered User,http://bit.ly/1HSEO32,Acknowledged,Pot holes ,2015-03-27T11:39:36
90,2015-03-27T09:06:17,"Alden Ave. Between Willard And Fountain New Haven, Connecticut",2015-03-31T11:02:27,2015-03-26T18:03:21,Many potholes as one drives from Willard to Fountain.  You have to drive in the center of Alden to avoid them!  Some are pretty deep.,1554709,41.3252927391,-72.9627307595,189966,Mary,Registered User,http://bit.ly/1yf24mO,Open,Pot holes,2015-04-04T16:47:01
91,2015-04-01T11:33:30,"120-126 Farren Ave New Haven, Connecticut",,2015-03-26T11:36:59,Just saw a crew filling potholes on Townsend ave and I think the road was worse than when they started. Maybe they should be trained in road repair. Just a thought.,1553607,41.2977652,-72.8926027,931373,Harleyinnewhaven,Registered User,http://bit.ly/1OAJXBS,Acknowledged,Potholes,2015-04-01T12:19:03
92,2015-03-26T16:16:57,"70-58 Taylor Avenue New Haven, Connecticut",,2015-03-26T11:20:52,"Several potholes from 58 - 70 Taylor Avenue, New Haven, CT 06515",1553563,41.340015,-72.971971,156231,bethebestme,Registered User,http://bit.ly/1OAHlUF,Acknowledged,Potholes,2015-03-29T15:19:59
93,2015-04-01T11:33:30,"Blatchley And Lombard New Haven, Connecticut",2015-04-02T16:22:37,2015-03-25T22:42:03,On Blatclhley between Lombard and State there are many potholes. Street is in need of repair.,1553100,41.3145917,-72.9006735,102106,XYZ,Registered User,http://bit.ly/1BrAeE4,Open,Potholes,2015-04-02T22:43:04
94,2015-03-25T17:52:00,"130 Hamilton St New Haven, Connecticut",,2015-03-25T16:41:40,Everyone's car is bottoming out when pulling out of a parking lot on Hamiton and destroying the front end when pulling in. ,1552687,41.307181,-72.9131589,1017191,Serena,Registered User,http://bit.ly/1CPL8c4,Acknowledged,Potholes,2015-03-25T17:52:00
95,2015-04-01T11:33:30,"36 Front Street New Haven, Connecticut",,2015-03-25T11:43:40,Fairmont/Townsend between Ferry St. and US 1 is more hole than pavement.,1551994,41.305816,-72.891262,0,An anonymous SeeClickFix user,Registered User,http://bit.ly/1xyQB6G,Acknowledged,Potholes,2015-04-01T11:33:30
96,2015-03-25T17:48:30,"Entire Seneca Rd New Haven, Connecticut",2015-04-07T09:33:28,2015-03-25T09:54:55,Numerous deep pot holes the entire length of Seneca Road as well as the intersection of Seneca and Fowler Street.,1551760,41.3322571,-72.9837049,0,JR,Registered User,http://bit.ly/1FUIAdn,Closed,Potholes,2015-04-07T09:33:29
97,2015-03-25T08:12:14,"Laurel Road And Knollwood Drive New Haven, Connecticut",2015-04-07T09:31:29,2015-03-25T08:10:10,There are multiple deep potholes along Knollwood Drive between Laurel Road and Mumford Road. In serious need of patching.,1551564,41.3231567,-72.9717545,62898,Parks Department,Verified Official,http://bit.ly/1HD3AUP,Closed,Potholes,2015-04-07T09:31:30
98,2015-03-25T07:44:53,"Yale University 70 Tower Parkway, New Haven, CT 06511, USA",,2015-03-25T07:10:05,https://instagram.com/p/0pfcXCMkb5 #instagram,1551519,41.31345,-72.930878,1011161,Hashtag SeeClickFix,Admin,http://bit.ly/1DYiJ5h,Acknowledged,Massive #pothole #seeclickfix #NHV outside of #PayneWhitney on Tower Parkway @newhavendot,2015-03-25T09:52:00
99,2015-03-25T07:44:53,"329-343 Goffe Street New Haven, Connecticut",,2015-03-24T21:19:14,the potholes on Goffe St/Goffe Terrace between Sherman Ave & Winthrop St. headed up the hill are getting worse.,1551357,41.3203001271,-72.9405680307,17163,bhk,Registered User,http://bit.ly/1Ggo6My,Acknowledged,Potholes,2015-03-25T07:44:53
100,2015-03-25T07:44:53,"497-521 Blake Street New Haven, Connecticut",,2015-03-24T20:49:33,Pothole deep enough to destroy a tire.,1551330,41.3277622685,-72.9600180313,871226,Bill T,Registered User,http://bit.ly/1BLlIaf,Acknowledged,Potholes,2015-03-26T13:39:07
101,2015-03-25T07:44:53,"Glen Rd And Ella Grasso Blvd New Haven, Connecticut",,2015-03-24T20:07:36,"Large potholes on Glen Road near Ella Grasso Blvd need to be filled, please.",1551280,41.3254885,-72.9473574,991553,Pam,Registered User,http://bit.ly/1CnYqMs,Acknowledged,Potholes,2015-03-25T07:44:54
102,2015-03-24T17:27:45,"90 Park  New Haven, Connecticut",2015-04-09T16:55:25,2015-03-24T15:41:27,Deep Pothole in street at entrance of parking garage across from 90 Park Street.  ,1550882,41.3064799,-72.935358,0,Catherine Bowman,Registered User,http://bit.ly/1Cn9SrN,Closed,Potholes,2015-04-09T16:55:25
103,2015-03-25T07:44:54,"Westville New Haven, CT",,2015-03-24T13:04:01,"Neighborhood riddled with pot holes on Fairfield St  at bet Glenview and 
Ramsdell . Please address . . ",1550492,41.3187255,-72.9755829,395674,Westville girl,Registered User,http://bit.ly/1ENTJez,Acknowledged,Pot holes,2015-03-25T07:44:54
104,2015-03-24T17:19:10,"68-78 Olive Street New Haven, CT 06511, USA",,2015-03-24T11:44:07,https://instagram.com/p/0V01wNylIY #instagram,1550298,41.304207359,-72.920368898,1011161,Hashtag SeeClickFix,Admin,http://bit.ly/1ENy8mp,Acknowledged,#seeclickfix #pothole <Instagram integration to City Hall. Potholes look better. Grams feed looks worse. Sorry. Not Sorry.,2015-03-24T17:19:10
105,2015-03-25T07:44:54,"Norton New Haven, Connecticut",,2015-03-24T11:41:06,,1550283,41.3170721173,-72.9464076804,0,Juathena Foreman,Registered User,http://bit.ly/1ENxaqu,Acknowledged,Pothole,2015-03-25T07:44:54
106,2015-03-24T16:30:17,"82-92 York Street New Haven, CT 06511, USA",2015-04-09T16:57:18,2015-03-24T10:41:54,https://instagram.com/p/0ht0uDskQ9 #instagram,1550143,41.306245,-72.933266667,1011161,Hashtag SeeClickFix,Admin,http://bit.ly/1CLSKwf,Closed,"#seeclickfix #pothole George at York Street - not deep, not emergency",2015-04-09T16:57:19
107,2015-03-25T07:44:54,"142 Ramsdell Street New Haven, Connecticut",,2015-03-24T08:33:42,"There are multiple deep potholes along the entire street of Ramsdell. Three in particular can cause car damage if drove into. In serious need of patching, this is a frequently traveled street to two main roads.",1549833,41.332145,-72.976006,62898,Parks Department,Verified Official,http://bit.ly/1CLJY1k,Acknowledged,Potholes,2015-03-25T07:44:54
108,2015-03-24T07:43:06,"59 Parmelee new haven, CT",,2015-03-24T06:43:31,Parmelee Ave deep large potholes up and down the street. Aggrivated because Ive now lost a hubcap hitting one. Holes filled with packed gravel just around the corner on Judson...what happen to Parmelee Ave!? ,1549637,41.3070702,-72.9503674,0,Michelle,Registered User,http://bit.ly/1EMwfq0,Acknowledged,Dangerous Potholes ,2015-03-24T07:43:06
109,2015-03-23T17:32:09,"565 Fountain St New Haven, Connecticut",,2015-03-23T11:18:06,I'm on the corner of Fountain and my driveway in on Ramsdell.  The potholes on Ramsdell are very bad.  They are deep and wide.  Please send someone to fix. Thank You,1547419,41.329018,-72.978738,0,An anonymous SeeClickFix user,Registered User,http://bit.ly/1IkwZnw,Acknowledged,Potholes,2015-03-23T17:32:09
110,2015-03-23T10:57:35,"289-295 Prospect Avenue New Haven, Connecticut",,2015-03-23T10:52:29,There are potholes throughout Prospect Avenue. Please send a crew to patch them as soon as possible.,1547356,41.2875773524,-72.894059654,6774,Department of Public Works,Verified Official,http://bit.ly/1HsIrzP,Acknowledged,Potholes,2015-03-23T11:01:06
111,,"Willow Street....Entire Length  New Haven, CT",,2015-03-22T10:23:49,"I'm not sure what is the issue and/or why Willow Steet hasn't been fixed, but its gone from dangerous potholes to the entire street is falling apart.  Can someone PLEASE DO SOMETHING????!!!!!!!",1545230,41.308274,-72.9278835,0,An anonymous SeeClickFix user,Registered User,http://bit.ly/1B2oh8v,Open,Street torn up,2015-03-23T10:31:11
112,2015-03-23T09:22:51,"276 Alden Avenue New Haven, CT 06515, USA",2015-03-31T11:09:05,2015-03-21T16:54:15,Gap around this manhole covering is getting bigger.,1544865,41.3235397339,-72.963973999,8805,EmilyH,Registered User,http://bit.ly/1EzQRzj,Closed,Potholes,2015-04-05T19:07:21
113,2015-03-23T09:22:51,"Legion Avenue Between Ella Grasso And Sherman New Haven, Connecticut",,2015-03-21T11:54:36,Several wide deep potholes in lefthand lane of this very busy road.,1544509,41.3057594914,-72.9491695107,346086,concerned,Registered User,http://bit.ly/1bkRUfi,Acknowledged,Potholes,2015-03-23T09:22:51
114,2015-03-23T09:22:51,"Sargent Drive New haven, Connecticut",,2015-03-21T10:02:12,There are railroad tracks on Sargent drive. The tracks are raised with potholes around the tracks. Got a bubble in my tire & bent rim. Tracks may need to be pulled up or tar built up around tracks. ,1544407,41.2914729,-72.9221406,1007113,Alex discepolo,Registered User,http://bit.ly/1bkKrNj,Acknowledged,Potholes,2015-03-23T09:22:51
115,2015-03-20T16:04:06,"Between Legion And Sylvan Avenue On Winthrop Avenue New Haven, Connecticut",,2015-03-20T14:03:09,"There are at least five deep potholes in the area. Please fix as soon as possible. Damage done to people's vehicles driving by,",1543501,41.3119098,-72.9470167,0,An anonymous SeeClickFix user,Registered User,http://bit.ly/19Fd7jN,Acknowledged,Potholes,2015-03-20T16:04:06
116,2015-03-20T16:08:34,"Ellsworth Ave New Haven, Connecticut",,2015-03-20T12:50:04,Still full of potholes from Elm to Whalley.,1543353,41.318478,-72.9475246,969197,Dan B,Registered User,http://bit.ly/1BX0l9q,Acknowledged,Potholes,2015-03-20T16:08:34
117,2015-03-20T16:01:47,"64 Judson Avenue New Haven, Connecticut",,2015-03-20T10:11:48,"On Judson Avenue, between ET Grasso and Winthrop Avenue, there are several potholes in the road. Please patch them as soon as possible.",1542931,41.3081957716,-72.9506028016,6774,Department of Public Works,Verified Official,http://bit.ly/1ExqFVX,Acknowledged,Potholes,2015-03-20T16:01:47
118,2015-03-23T09:22:52,"Winchester Ave New Haven, Connecticut",,2015-03-20T09:51:33,"Entire street has many, many potholes",1542867,41.3255709,-72.9277228,6774,Department of Public Works,Verified Official,http://bit.ly/1ExpJRB,Acknowledged,Potholes,2015-03-23T09:22:52
119,,"Burwell  New Haven, Connecticut",,2015-03-19T21:41:00,I did see them filling potholes  on Burwell this afternoon.,1541143,41.2933257,-72.8894255,0,An anonymous SeeClickFix user,Registered User,http://bit.ly/1986F3r,Open,Potholes,2015-03-20T06:50:47
120,2015-03-20T09:47:25," Judson Avenue New haven , Connecticut",,2015-03-19T18:38:20,Judson street is ful of pothole from the beginning to the end of the street should be fixed asp thanks,1540901,41.3082012,-72.9506049,0,An anonymous SeeClickFix user,Registered User,http://bit.ly/197z4Xs,Acknowledged,Potholes,2015-03-20T09:47:25
121,2015-03-20T09:55:36,"141 Willow Street New Haven, Connecticut",,2015-03-19T16:08:11,"Tons of pot holes are up and down this street from Willow/Whitney to the expressway entrance, past East Rock High School. Really big holes near the gas station and across from the high school. ",1540637,41.3207316,-72.9078307,0,CPH,Registered User,http://bit.ly/1C1rEAG,Acknowledged,Potholes,2015-03-20T09:55:36
122,2015-03-19T16:15:00,"From Legion Avenue Taking A Left Onto Sherman Avenue---Big Pothole Just Before The Light At The Intersection New Haven, Connecticut",,2015-03-19T14:31:21,from legion avenue taking a left onto sherman avenue---big pothole just before the light at the intersection,1540458,41.3103725899,-72.9241595115,364641,jkg,Registered User,http://bit.ly/1x5eulN,Acknowledged,SNOW RELATED,2015-03-31T12:10:36
123,2015-03-19T16:15:56,"Legion Ave New Haven, Connecticut",,2015-03-19T14:23:59,Messed up my front passenger side tire which now I gotta pay 600 to repair,1540427,41.3059686,-72.9451505,0,An anonymous SeeClickFix user,Registered User,http://bit.ly/1x5cABM,Acknowledged,Pothole damage my car,2015-03-19T16:15:56
124,2015-03-19T16:10:00,"Long Wharf Drive New Haven, Connecticut",,2015-03-19T13:59:26,"When cars turn onto Long Wharf Drive (headed past the old Gateway College parking lot), on one side of the 2-lane road, along Long Wharf Drive are about a dozen potholes in close proximity to each other.  One is very wide.  The road curves to the left, and in order to avoid all the potholes, cars are being driven in the opposite lane (toward Sargent Drive).  A few times, I've seen cars headed in opposite directions almost collide.  To otherwise avoid the potholes, drivers have to swing to the right, and risk almost hitting the curb.  Thank you.  ",1540368,41.2926335,-72.9192477,983991,Deep potholes.,Registered User,http://bit.ly/1x55BIS,Acknowledged,Potholes,2015-03-19T16:10:00
125,2015-03-19T16:08:32,"Willow Street New Haven, Connecticut",,2015-03-19T12:57:46,Hazardous potholes located directly between Nicoll and Foster street. Resident called in about danger to elderly people in the area.,1540227,41.3208174,-72.9088516,6774,Department of Public Works,Verified Official,http://bit.ly/1H3Oszg,Acknowledged,Potholes,2015-03-19T16:08:33
126,2015-03-19T16:08:07,"249 Oliver Road New Haven, Connecticut",,2015-03-19T12:41:05,"We have a bunch of concrete missing at the base of our driveway from the snow plows this winter. When the snow melts it's creating pretty big sized puddles. I'm hoping that we can have more concrete added to level out this area.

Thank you!",1540168,41.3160809,-72.968387,0,An anonymous SeeClickFix user,Registered User,http://bit.ly/1H3JSkB,Acknowledged,Potholes,2015-03-19T16:08:16
127,2015-03-19T16:03:38,Willow Street New Haven,,2015-03-19T08:25:58,"As you turn left on to Willow Street from Whitney Avenue, there are several pot holes.  What really needs to be done is a total repaving of Willow.",1539323,41.3208174081,-72.9088516,131310,Copperman,Registered User,http://bit.ly/18KGX5l,Acknowledged,Potholes,2015-03-22T14:14:35
128,2015-03-19T07:58:35,"Willow St New Haven, CT",,2015-03-18T23:05:57,Still seeing almost no street left from willow st through to whitney av all large potholes that have not been covered since last years storm..they get larger and traffic has to stop on one side to let one section go before the opposite side can drive over the line to avoid these holes..I do see they fixed the hole on 258 willow street but stopped there...please fix immediatly its been over a year,1539182,41.3208174,-72.9088516,0,maritza,Registered User,http://bit.ly/193SEDP,Acknowledged,pot holes,2015-03-19T07:58:35
129,2015-03-19T07:58:45,"482 Greenwich Avenue New Haven, Connecticut",,2015-03-18T18:29:19,"Deep and wide pothole in front of C-Town Market's driveway at 482 Greenwich Ave.  Cars waiting to enter parking lot can't turn into it because cars driving straight in the opposite lane can't dodge the pothole, as well as cars parked on the street.  Resulting in both lanes not being able to move, unless several cars are backed up, to allow cars going straight to swing to the left enough to get around the pothole.  ",1538956,41.2908835,-72.9340607,983991,Deep potholes.,Registered User,http://bit.ly/1I0nlX3,Acknowledged,"Deep, wide pothole causing traffic jams",2015-03-19T07:58:45
130,2015-03-18T17:03:13,"Percivel St New Haven, Connecticut",,2015-03-18T10:50:55,Several large potholes on this entire block between Carmel St and Sherman Ave. The issue should warrant immediate attention.,1537909,41.3187645213,-72.9417850429,0,An anonymous SeeClickFix user,Registered User,http://bit.ly/1xxNs1q,Acknowledged,Potholes,2015-03-18T17:03:14
131,,"All Streets New Haven, Connecticut",,2015-03-18T10:14:34,"The City of New Haven Is littered with Potholes. Every Street is full. I have been a resident of New Haven for over 50 years and I have never seen such neglect of our City Roads. In addition this has been the year for the worst snow removal ever. If you drive through surrounding towns you will not see the abundance of poorly plowed streets. 
The residents of the City of New Haven pay outrageous property tax, close to the highest in the country. What are we getting for our hard earned monies? Its ridiculous!!!!!",1537823,41.308274,-72.9278835,0,An anonymous SeeClickFix user,Registered User,http://bit.ly/1xesASg,Open,Potholes,2015-03-19T15:55:17
132,2015-03-18T17:04:17,"2-16 Winchester Avenue New Haven, Connecticut",,2015-03-18T10:13:54,Multiple potholes on Winchester Ave right before you high Sachem Street. ,1537819,41.3161918437,-72.9265211704,0,An anonymous SeeClickFix user,Registered User,http://bit.ly/1xesuu1,Acknowledged,Potholes,2015-03-18T17:04:17
133,2015-03-18T17:05:29,"31 Sperry Street New Haven, Connecticut",,2015-03-18T10:13:40,All of Sperry Street (between Whalley Ave and Goffe Street) is covered in potholes. ,1537818,41.3144896313,-72.9355504381,0,An anonymous SeeClickFix user,Registered User,http://bit.ly/1xesqKF,Acknowledged,Potholes,2015-03-18T17:05:29
134,2015-03-18T10:10:25,"West Park Avenue And Whalley Avenue  New Haven, Connecticut",,2015-03-18T09:43:00,"On West Park Avenue, from Whalley Avenue to Pendleton Street, there are numerous potholes. Please send someone to patch the holes as soon as possible. ",1537742,41.322951,-72.9543175,6774,Department of Public Works,Verified Official,http://bit.ly/1xemu4s,Acknowledged,Potholes,2015-03-18T10:10:25
135,2015-03-18T10:10:26,"264 Cranston Street New Haven, Connecticut",,2015-03-18T08:58:52,"There are a couple of deep potholes right in front of 264 Cranston street in New Haven, near Cranston and Quinnipiac.",1537640,41.3321461,-72.8682,0,Posco Odior,Registered User,http://bit.ly/18Hcx3O,Acknowledged,Potholes,2015-03-31T10:34:45
136,2015-03-18T10:10:26,"Willow St.  New Haven, Connecticut",,2015-03-17T19:39:48,"There are some crazy potholes on Willow St. after this winter - please patch them, they're destroying my car. The potholes are perfectly aligned with the passenger side tire if one stays in the lane, so to avoid them, its necessary to drive down the middle of the road, creating a safety hazard for oncoming traffic. Some of the potholes are deep! I'd estimate 4-6 inches. Please come by and cold patch this entire strip from Whitney to Nash. ",1537279,41.3225900515,-72.9130143884,2422,emilyg,Registered User,http://bit.ly/1BvzQnS,Acknowledged,Potholes,2015-03-18T14:42:45
137,2015-03-18T10:10:26,"Mansfield St.  New Haven, Connecticut",,2015-03-17T19:35:09,"Crazy potholes over here and the roads are still narrowed by unmelted piles of snow on the curb, making it difficult to avoid oncoming traffic and potholes at the same time, Please Cold Patch!",1537271,41.3171567828,-72.925853,2422,emilyg,Registered User,http://bit.ly/1BvzayR,Acknowledged,Potholes,2015-03-18T10:10:26
138,2015-03-18T10:10:26,"Winthrop Ave.  New Haven, Connecticut",,2015-03-17T19:32:42,Please repair all the potholes on Winthrop between Chapel and Goffe! It's terrible!,1537268,41.3127801357,-72.9466519196,2422,emilyg,Registered User,http://bit.ly/1BvyLfG,Acknowledged,Potholes,2015-03-18T10:10:26
139,2015-03-19T08:03:39,"495 Winthrop Ave New Haven, Connecticut",,2015-03-17T18:55:52,"Last week New Haven PW came down my street and dropped some patch into the deep craters on my street. When I say dropped , I mean they literally took a shovel or two full of patch, threw it into the hole and moved onto the next one. They didn't bother to tamp it down or anything and now less than a week later, all the patch is gone and the holes are worse than they were before! You literally have to weave down my street to avoid damage to your vehicle. Can someone please come back out and PROPERLY patch these holes?!",1537214,41.318475,-72.943527,53361,Concerned Whalley Homeowner,Registered User,http://bit.ly/1Bvt2qf,Acknowledged,Horrible Pothole Patchwork,2015-03-19T09:40:25
140,2015-03-18T10:10:27,"574 Orange Street New Haven, CT 06511, USA",,2015-03-17T14:51:24,,1536718,41.3161282081,-72.9162279,367858,max,Registered User,http://bit.ly/19wERH5,Acknowledged,Potholes,2015-03-18T10:10:27
141,2015-03-18T10:10:27,"426-436 Orange Street New Haven, Connecticut",,2015-03-17T13:55:32,"long pothole at the crosswalk on the corner of Orange & Church, across the street from the City parking lot. it's a problem for pedestrians waiting to cross the street there. When it's filed with water the splash area as cars drive through the pothole is a large one. I'd rather not have my cleaning bill go up.",1536524,41.3122667051,-72.9192176965,17163,bhk,Registered User,http://bit.ly/19wubZb,Acknowledged,Potholes,2015-03-18T10:10:27
142,2015-03-18T11:27:56,"Judson Avenue New Haven, Connecticut",,2015-03-17T13:25:20,Several large potholes on street. Not just one area but the whole street from Winthrop end and Ella T.Grasso Blvd. end.,1536436,41.3082012,-72.9506049,0,An anonymous SeeClickFix user,Registered User,http://bit.ly/19woSc5,Acknowledged,Potholes,2015-03-18T17:10:38
143,2015-03-18T11:27:57,"Ramsdell Street  New Haven, Connecticut",,2015-03-17T12:01:21,"Resident reports potholes up and down Ramsdell Street. Please patch them. Also, please inspect Ramsdell Street for repaving. ",1536257,41.3305259,-72.9775413,6774,Department of Public Works,Verified Official,http://bit.ly/19w7sMD,Acknowledged,Potholes,2015-03-18T11:27:57
144,2015-03-18T11:27:57,"Fairfield Street  New Haven, Connecticut",,2015-03-17T11:56:54,"Resident reports numerous potholes on Fairfield Street (entire street). The resident would like to have the potholes patched, and have the street scheduled for repaving. ",1536242,41.3298592,-72.9751774,6774,Department of Public Works,Verified Official,http://bit.ly/19w6bFl,Acknowledged,Potholes,2015-03-18T11:27:57
145,2015-03-17T11:00:50,"34-36 Sperry Street New Haven, Connecticut",,2015-03-17T10:53:12,There are clusters of potholes on Sperry Street between Dickerman and Whalley. Please patch them as soon as possible.,1536065,41.3148441999,-72.935357319,6774,Department of Public Works,Verified Official,http://bit.ly/1EmUI2t,Acknowledged,Potholes,2015-03-17T11:00:50
146,2015-03-17T10:27:47,"155-199 Long Wharf Drive New Haven, Connecticut",,2015-03-17T10:22:23,A row of 5 potholes and then a large hole about a yard wide.,1535983,41.287471982,-72.9259312037,996341,Emily89,Registered User,http://bit.ly/1bduOqU,Acknowledged,Potholes,2015-03-17T11:01:15
147,2015-03-17T10:27:48,"93-129 Edwards Street New Haven, Connecticut",,2015-03-17T10:10:53,About 5 feet long and 2 ft wide.  Seems likes its from a patch job after some road work thats been exposed due to the plows.,1535955,41.3173729583,-72.9129624547,2870,Chris L,Registered User,http://bit.ly/1bdtUdZ,Acknowledged,Potholes,2015-03-17T13:48:55
148,2015-03-17T10:27:48,"Orange St And Trumbull St New Haven, CT 06510, USA",,2015-03-17T10:02:37,There are about a dozen potholes several feet in diameter and at least one that is a foot deep. Very dangerous and damaging to cars & tires. From Orange & Trumbull up to Cafe Romeo.,1535933,41.3124262173,-72.9189816925,420208,tarch2ta,Registered User,http://bit.ly/1bdtbJW,Acknowledged,Potholes,2015-03-17T13:49:54
149,2015-03-17T10:27:48,"Willow Street New Haven, Connecticut",,2015-03-17T09:42:19,Willow Street is horrible. It was bad last year and never got fixed. Even worse now.  Cars swerving into next traffic lane to avoid.,1535805,41.3208174,-72.9088516,0,An anonymous SeeClickFix user,Registered User,http://bit.ly/1bdrEU0,Acknowledged,Potholes all over.,2015-03-17T13:47:25
150,2015-03-17T10:27:48,"426-436 Orange Street New Haven, Connecticut",,2015-03-17T09:37:54,"The annual appearance of this pothole is upon us. Might be 10""-12"" deep right now. Can't see it because its filled with water.
(PS Orange Street in general is a disaster up and down its length.)",1535795,41.3122819492,-72.9191519207,7568,robn,Registered User,http://bit.ly/1bdrnAA,Acknowledged,Potholes,2015-03-17T13:47:47
151,2015-03-17T09:33:19,"York Square Place And Tower Parkway  New Haven, Connecticut",,2015-03-17T09:23:41,Resident reports deep potholes at this location. Please patch them as soon as possible.,1535767,41.3133989,-72.930515,6774,Department of Public Works,Verified Official,http://bit.ly/1AT6WOo,Acknowledged,Potholes,2015-03-17T09:33:19
152,2015-03-17T09:33:19,"1-199 York Square Place New Haven, Connecticut",,2015-03-17T09:17:11,"At the corner of York Square Place and Tower Parkway, there are a series of large potholes that need patching. Please send someone to patch. ",1535758,41.3135227753,-72.9303486725,6774,Department of Public Works,Verified Official,http://bit.ly/1AT5ewy,Acknowledged,Potholes,2015-03-17T09:33:19
153,2015-03-17T09:33:19,"208 Legion Ave New Haven, Connecticut",,2015-03-17T09:12:26,A large deep pothole on legion ave,1535751,41.3061017,-72.94011,6774,Department of Public Works,Verified Official,http://bit.ly/1AT3KCv,Acknowledged,Potholes,2015-03-17T09:33:19
154,2015-03-17T09:33:20,"Cross Street  New Haven, Connecticut",,2015-03-17T09:05:53,"Between Middletown Avenue and Smith Avenue, there are large potholes on the street. ",1535734,41.3298583,-72.8730781,6774,Department of Public Works,Verified Official,http://bit.ly/1AT1Fq0,Acknowledged,Potholes,2015-03-17T09:33:20
155,2015-03-17T09:33:20,"Valley Street New Haven, Connecticut",,2015-03-16T21:05:22,Between Parkside Dr. and Pond Lilly Ave. on Valley Street are a umber of deep potholes. ,1534815,41.333054,-72.9701573,0,An anonymous SeeClickFix user,Registered User,http://bit.ly/1x9LLg7,Acknowledged,Potholes,2015-03-17T09:33:20
156,2015-03-18T12:08:29,"664 Grand Ave. New Haven, Connecticut",,2015-03-16T19:56:00,"There's a deep pothole at the manhole cover in the middle of Grand Ave. near Ferraro's. At p.m. drive time, there is almost always an older brown van parked on the street in front of Ferraro's street entrance.  The van narrows the road in such a way that eastbound cars are easily forced into the pothole - especially with oncoming traffic.  It happened to me more than once and it's very hard on the car.  This has been going on since last snow season.  I reported it, but its never been fixed. ",1534758,41.3044409641,-72.9214129295,389135,amicahomi,Registered User,http://bit.ly/1HWdPUT,Acknowledged,Traffic/Road Safety,2015-03-18T12:08:29
157,2015-03-17T09:33:20,"South Frontage Road  New Haven, Connecticut",,2015-03-16T19:27:50,There is a very deep pothole on the right side of the road on South Frontage. I believe I hit it near Vine Street. It is so deep that It completely popped my rear tire and completely bent the rims of my tires on the front and back of the car. ,1534720,41.2834749221,-72.9367316006,0,Aimee ,Registered User,http://bit.ly/1EWHfDY,Acknowledged,Potholes,2015-03-18T00:11:14
158,2015-03-17T09:33:20,"Winchester Avenue New Haven, Connecticut",,2015-03-16T18:34:23,"Deep potholes all throughout Winchester Avenue. Also, Corner of Winchester and Bassett was patched up but not good enough, road is extremely bumpy.",1534623,41.3255709,-72.9277228,0,New Haven Resident,Registered User,http://bit.ly/1EWyHwN,Acknowledged,Potholes,2015-03-17T09:33:20
159,2015-03-17T09:33:21,"469 Edgewood Avenue New Haven, CT 06511, USA",,2015-03-16T18:02:51,,1534557,41.3153076172,-72.9508285522,12806,David Backeberg,Registered User,http://bit.ly/1Gf7SB8,Acknowledged,Potholes,2015-03-25T19:07:40
160,2015-03-16T17:58:22,"454-456 Russell Street New Haven, Connecticut",,2015-03-16T16:46:10,3 large potholes at intersection of Russell and turning onto Skyview/Highview.  No way to avoid when entering and exiting. ,1534364,41.3043442483,-72.8782830085,0,Janis,Registered User,http://bit.ly/1GeQvAt,Acknowledged,Potholes,2015-03-16T17:58:22
161,2015-03-17T09:33:21,"Livingston Street New Haven, Connecticut",,2015-03-16T15:50:08,"Last year the intersection of East Rock and Livingston was patched with a lane-wide patch.  Now there are two potholes in the patch, requiring that you turn into the lane for oncoming traffic to avoid them.  Please repair. ",1534249,41.3238925,-72.913687,0,Louise Barratt,Registered User,http://bit.ly/1x93aFE,Acknowledged,Potholes,2015-03-17T09:33:21
162,2015-03-17T09:33:21,"11 Arch Street New Haven, Connecticut",,2015-03-16T15:14:39,Did not put enough material to fill the pothole,1534148,41.298357,-72.937778,6774,Department of Public Works,Verified Official,http://bit.ly/1x8XqM8,Acknowledged,Potholes,2015-03-17T09:33:21
163,2015-03-17T09:33:21,"475 East Shore Parkway  New Haven, Connecticut",,2015-03-16T15:07:12,Extremely large pothole very difficult to pass due to size,1534125,41.2897819269,-72.9017361413,6774,Department of Public Works,Verified Official,http://bit.ly/1x8Wffy,Acknowledged,Potholes,2015-03-17T09:41:07
164,2015-03-16T15:45:15,"Temple St. New Haven, Connecticut",,2015-03-16T14:35:21,"Deep potholes near the bus stop at Temple and Chapel cause the buses to pitch, creating a hazard for passengers.",1534040,41.3086265,-72.925509,993940,Safety Super.,Registered User,http://bit.ly/1x8QPRP,Acknowledged,Potholes,2015-03-16T16:54:58
165,2015-03-17T09:33:21,"Legion Ave New Haven, Connecticut",,2015-03-16T12:22:31,right hand lane  2 very very deep potholes   about 100feet from one another,1533686,41.3059686,-72.9451505,0,An anonymous SeeClickFix user,Registered User,http://bit.ly/1GdQtsK,Acknowledged,Potholes,2015-03-17T09:33:21
166,2015-03-16T15:48:04,"Quinnipiac Avenue And Lenox Street  New Haven, Connecticut",,2015-03-16T12:22:16,Resident reports a pothole at this location. Please send someone to patch it as soon as possible.,1533684,41.2992914,-72.8897799,6774,Department of Public Works,Verified Official,http://bit.ly/1GdQpcz,Acknowledged,Potholes,2015-03-16T15:48:04
167,2015-03-16T12:00:02,"Winchester Avenue New Haven, CT",,2015-03-16T11:28:53,There are about six huge potholes on Winchester Avenue near Albertus Magnus. They're impossible to dodge ;you go into a pothole trying to skip another.  ,1533540,41.3255709,-72.9277228,0,Please Fix ASAP,Registered User,http://bit.ly/1GdDya7,Acknowledged,Many Potholes,2015-03-16T12:00:02
168,2015-03-16T10:35:53,"Maple & Brownell New Haven, Connecticut",,2015-03-16T10:13:57,A large deep Pothole ,1533184,41.316774,-72.9517915,6774,Department of Public Works,Verified Official,http://bit.ly/1Ds2ehp,Acknowledged,Potholes,2015-03-16T10:38:57
169,2015-03-16T10:35:53,"Willow Street New Haven, Connecticut",,2015-03-16T10:07:14,On Willow Street near the shell gas station a very large deep pothole,1533161,41.3208174,-72.9088516,6774,Department of Public Works,Verified Official,http://bit.ly/1Ds0tAN,Acknowledged,Potholes,2015-03-17T13:49:19
170,2015-03-16T10:35:55,"Winchester/Webster Going Towards Sachem Street New Haven, Connecticut",,2015-03-16T08:30:04,On Winchester before Sachem Street Many large potholes making this part of Winchester a one lane..,1532823,41.3161059,-72.9242045,7992,Brauna,Registered User,http://bit.ly/1BJ7uK8,Acknowledged,Potholes,2015-03-16T10:35:55
171,2015-03-16T10:35:55,"Winchester Ave New Haven, Connecticut ( the last leg of Winchesternear the new Yale construction) Dixwell Neighborhood)",,2015-03-16T08:19:20,"Winchester Ave after the light towards Sachem St has many deep holes, the size of a large blackball.  Winchester has become a one lane street!!",1532793,41.3255709,-72.9277228,7992,Brauna,Registered User,http://bit.ly/1EUveio,Acknowledged,Potholes,2015-03-16T19:21:02
172,2015-03-16T11:15:52,"120 Edwards Street New Haven, Connecticut",,2015-03-15T19:28:46,There is a trench for a drain or utility line in front of 120 Edwards that was not paved before the snow started and now it is a big hole that spans most of the east bound lane.  I have watched school buses swerve to avoid it -- it should be fixed right away.,1532014,41.3174563,-72.9135781,287143,Roger,Registered User,http://bit.ly/1NYjBJR,Acknowledged,Potholes,2015-03-17T05:45:29
173,2015-03-16T12:00:02,"15-53 Bailey Street New Haven, CT 06513, USA",,2015-03-15T17:28:00,Huge hole here,1531854,41.3196043556,-72.8899183509,92781,Tech75,Registered User,http://bit.ly/1GIQx3B,Acknowledged,Potholes,2015-03-16T12:00:02
174,2015-03-16T11:15:53,"Ellsworth Ave New Haven, Connecticut",,2015-03-15T13:09:12,"Many, many deep potholes.",1531499,41.318478,-72.9475246,969197,Dan B,Registered User,http://bit.ly/1HUjue2,Acknowledged,Potholes,2015-03-16T11:15:53
175,2015-03-16T11:15:54,"258 Willow St new haven, CT",,2015-03-15T12:28:30,Large pothole in front of house and throught out the 2blocks from Orange St and Willow st straight down to Whitney ave and Willow st it has never been cleared since last years storm,1531467,41.3224316,-72.9126584,0,maritza,Registered User,http://bit.ly/1HUfXfL,Acknowledged,potholes,2015-03-22T12:41:04
176,2015-03-16T11:15:54,"Hubinger St New Haven, Connecticut",,2015-03-15T10:50:31,Multiple deep pothole on Hubinger ST between Elm and West Park.,1531376,41.3191691,-72.954405,119422,Artman,Registered User,http://bit.ly/1HU7CZs,Acknowledged,Potholes,2015-03-23T18:02:04
177,2015-03-16T11:31:01,"413 Valley Street New Haven, Connecticut",,2015-03-15T10:05:38,"Huge pothole on Valley Street near the traffic light at E Ramsdell street.  It is so large it takes up the entire traffic lane, and is deep enough that it has caused me to have my tire replaced after hitting it.  ",1531332,41.3341903686,-72.9707655753,0,An anonymous SeeClickFix user,Registered User,http://bit.ly/1HU4jBv,Acknowledged,Potholes,2015-03-16T11:31:01
178,2015-03-16T11:27:35,"Fairfield St New haven, CT",,2015-03-15T09:41:54,4 blocks long various sizes -,1531318,41.3298592,-72.9751774,159674,Bridget,Registered User,http://bit.ly/1HU3s43,Acknowledged,Potholes,2015-03-16T11:27:35
179,2015-03-16T11:24:11,"Vista Terrace New Haven, Connecticut",,2015-03-15T09:07:22,Large pothole right as you turn off of Fountain Street onto Vista Terrace. Much of Marvelwood is also full of potholes.,1531297,41.3246282,-72.9699482,0,Sarah Beth,Registered User,http://bit.ly/1Fk172C,Acknowledged,Vista Terrace Pothole,2015-03-16T14:20:13
180,2015-03-16T11:22:23,Edwards St New Haven,,2015-03-15T00:26:03,"There is a huge, very deep hole on Edwards Street eastbound between Orange and State Streets. It has the shape of a large rectangle.  I think that it has gotten significantly deeper just in the course of this evening.  I went through it at 10 mph and scraped the bottom of my car.  If I had been going faster, I'm sure it could have popped a flat. This one is *bad*.

Update: there is now an orange marker on the edge of the hole, which is a big help.",1531211,41.3175849133,-72.9134628619,2268,Amanda G.,Registered User,http://bit.ly/18qG7ul,Acknowledged,Potholes,2015-03-16T11:22:23
181,2015-03-16T12:00:02,"1230-1240 Chapel Street New Haven, CT 06511, USA",,2015-03-14T18:13:48,,1530987,41.3092575073,-72.9356765747,2,Ben,Admin,http://bit.ly/1HTBMfB,Acknowledged,Potholes,2015-03-16T12:00:03
182,2015-03-16T12:00:03,"Legion Avenue New Haven, Connecticut",,2015-03-14T18:04:47,Numerous potholes all along Legion Ave. traveling East from the Grasso Blvd toward College St.  So many potholes that you have to drive like it's a slalom course!  When there is traffic in all lanes there is no way to avoid the potholes.  This is a safety concern because so many cars swerve to try to avoid the potholes anyway.,1530981,41.3059686,-72.9451505,177481,cs,Registered User,http://bit.ly/1HTBuFB,Acknowledged,Potholes,2015-03-16T12:00:03
183,2015-03-16T12:00:03,"72 Edgewood Avenue New Haven, CT 06511, USA",,2015-03-14T17:18:52,,1530934,41.3109092712,-72.9353637695,2,Ben,Admin,http://bit.ly/1HTzZXG,Acknowledged,Potholes,2015-03-16T12:00:03
184,2015-03-16T12:00:03,"80 Barnett Street New Haven, Connecticut",,2015-03-14T16:30:58,"I too got a notice that Barnett had been fixed this week, but it most definitely has not! The potholes are no joke. Help!",1530903,41.325738,-72.965798,0,Busted Bins!,Registered User,http://bit.ly/1GQtM12,Acknowledged,Really really bad holes,2015-03-16T12:00:04
185,2015-03-16T12:00:04,"Blatchley Ave And Lombard St New Haven, Connecticut",,2015-03-14T13:56:19,this street from bridge on Blatchley ave to the corner of Lombard St is dangerous! Why aren't any of the streets in Fair haven being kept up with like the precious street in WESTVILLE!,1530741,41.2984367085,-72.9291785,340958,marilyn,Registered User,http://bit.ly/1GQ5Bjw,Acknowledged,Potholes,2015-03-16T12:00:04
186,2015-03-16T12:00:04,"Ramsdell St New Haven, Connecticut",,2015-03-14T00:56:54,Entire street from Fountain St to Whalley Avenue has potholes that need to be filled.,1530354,41.3305259,-72.9775413,0,An anonymous SeeClickFix user,Registered User,http://bit.ly/1x3Oesr,Acknowledged,Potholes,2015-03-16T12:00:04
187,,"Pine Rock St.  New Haven , Connecticut",,2015-03-13T19:27:28,The whole New Haven side is bad,1530169,41.3292338,-72.9465798,379977,tecarawssu,Registered User,http://bit.ly/1Fb549C,Open,SCSU,2015-03-16T01:10:43
188,2015-03-16T12:18:20,"130 Court St New Haven, Connecticut",,2015-03-13T17:31:41,"Someone filled it with gravel, which is now on the street and might pop a tire.  ",1530011,41.3062442,-72.9232579,429649,Aly,Registered User,http://bit.ly/18k8TfY,Acknowledged,Potholes,2015-03-16T12:18:20
189,2015-03-13T15:46:58,"175 Humphrey Street New Haven, Connecticut",,2015-03-13T13:49:14,Pothole in street located in front of the address given. Resident called to follow up. ,1529589,41.313615,-72.909553,6774,Department of Public Works,Verified Official,http://bit.ly/1Ebm1gi,Acknowledged,Potholes,2015-03-13T20:10:12
190,2015-03-13T11:55:03,"130 Edgewood Avenue New Haven, Connecticut",,2015-03-13T10:55:38,"Hit a pothole that was three feet in diameter and several inches deep and it blew out my front and rear passenger tires.  Best part is a police office was parked a car length away, mentioned the pothole and what happened, he didn't even offer any help.  Not to mention, Edgewood Avenue is not the safest place for anyone to be stuck with two blown tires waiting on a tow truck.  Street is so dark as it is.  I'll be taking this further with the city.",1529254,41.3111094,-72.9377098,0,An anonymous SeeClickFix user,Registered User,http://bit.ly/1EaQueq,Acknowledged,Potholes,2015-03-13T17:54:17
191,2015-03-13T09:39:33,"East Rock Park Road New Haven, Connecticut",,2015-03-12T22:41:53,Numerous potholes along East Rock Park Road.,1528597,41.3322084,-72.9110551,986348,Linda,Registered User,http://bit.ly/1E9QAD8,Acknowledged,Potholes,2015-03-13T12:01:14
192,2015-03-13T09:39:33,"Anderson St And Willow St New Haven, CT",,2015-03-12T22:39:59,Pothole at stop sign on Anderson St and Willow St cross street ,1528595,41.3214843,-72.910416,986348,Linda,Registered User,http://bit.ly/1E9QxqQ,Acknowledged,Pothole,2015-03-13T12:01:19
193,2015-03-13T09:44:42,"Bottom Of Rock Hill Road New Haven, Connecticut",,2015-03-12T18:11:31,"Pot hole at  bottom of Rd
.
Pl fix....",1528139,41.3031783,-72.8849883,0,fix pot hole,Registered User,http://bit.ly/1BxOXlf,Acknowledged,pot hole ,2015-03-13T09:44:42
194,2015-03-13T09:44:42,"Corner Of Lexington Ave. N Revere St. New Haven, Connecticut",,2015-03-12T18:09:01,"Huge pot hole...fix at once


Corner of Lexington ave. N Revere street..",1528130,41.3019275,-72.8867081,0,kevin mcgloin,Registered User,http://bit.ly/1BxOdN5,Acknowledged,pot hole fix,2015-03-13T09:44:42
195,2015-03-13T09:44:42,"130 Edgewood Ave New Haven, Connecticut",,2015-03-12T17:42:49,There is a very deep pot hole at thecorner of Edgewood and Day Street. It is very large and in front of the driveway for Amistad Elementary,1528064,41.3111094,-72.9377098,0,An anonymous SeeClickFix user,Registered User,http://bit.ly/1BxGfDu,Acknowledged,Potholes,2015-03-13T09:44:42
196,2015-03-12T16:52:44,"197 Bradley Street New Haven, Connecticut",,2015-03-12T15:07:07,Serious amount of potholes as you turn on to Bradley Street from Orange Street.  Some are very deep.,1527723,41.3103725899,-72.9241595115,0,An anonymous SeeClickFix user,Registered User,http://bit.ly/1BA3Lys,Acknowledged,Potholes,2015-03-12T23:06:53
197,2015-03-12T14:09:45,"1-9 Congress Avenue New Haven, CT 06519, USA",2015-03-18T11:54:12,2015-03-12T13:20:40,very deep and large. It might cover upto 50% of the tire height of an average car. It wasnt there before the snowfall started back in Jan.,1527499,41.3028071384,-72.9301276734,985339,Player1024,Registered User,http://bit.ly/1wzr0tD,Open,Potholes,2015-03-18T13:15:32
198,2015-03-13T12:10:27,Farnahm Ave,,2015-03-12T10:19:29,The entire road is covered in potholes. Drivers have to swerve to avoid them in all directions making the road very unsafe for college students ,1526807,41.3309308082,-72.9526196,0,An anonymous SeeClickFix user,Registered User,http://bit.ly/1E8b92G,Acknowledged,Potholes,2015-03-13T12:10:27
199,2015-03-13T12:10:27,"Warrick Street New Haven, Connecticut",,2015-03-12T10:04:57,"All of Warwick & Burwell Street  are riddled with potholes.  Some are so large they take up half the road.  This is creating a
dangerous situation.",1526766,41.2972042,-72.8882797,0,An anonymous SeeClickFix user,Registered User,http://bit.ly/1E89QAI,Acknowledged,Potholes,2015-03-13T12:10:27
200,2015-03-12T10:18:39,"Legion Avenue Between Orchard And Howard New Haven, Connecticut",,2015-03-12T09:28:31,"Massive potholes in right-most lane, not drivable, forces drivers to stop and try to switch lanes, very dangerous",1526636,41.3063720088,-72.9387625398,0,An anonymous SeeClickFix user,Registered User,http://bit.ly/1E86DBg,Acknowledged,Potholes,2015-03-12T10:18:39
201,2015-03-12T09:16:13,"121 Springside Avenue New Haven, Connecticut",,2015-03-12T08:58:48,Several deep holes in the section between Common Ground and the entrances to West Rock.  Especially hazardous because the only way to avoid them is to swerve into the oncoming traffic lane with limited visibility due to the curving road. ,1526576,41.3363654422,-72.9585561599,0,An anonymous SeeClickFix user,Registered User,http://bit.ly/1ECyajC,Acknowledged,Potholes,2015-03-13T15:36:29
202,2015-03-12T09:16:13,"160 Pine Rock Avenue New Haven, Connecticut",,2015-03-12T08:50:46,"The potholes on this road, closer to Southern Connecticut Campus, are absolutely HORRIFIC. This needs IMMEDIATE attention. These DEEP, potholes are back-to-back for at least a 50-yard stretch. This causes for cars, that are driving in both directions, to drive in the middle of the street, in return, causing traffic and a potential accident-prone area. ",1526558,41.3297796,-72.9480565,0,An anonymous SeeClickFix user,Registered User,http://bit.ly/1ECx1bP,Acknowledged,Potholes,2015-03-12T10:41:14
203,2015-03-12T09:16:13,"842 Howard Avenue New Haven, Connecticut",,2015-03-12T08:43:19,The right lane on Howard Ave going towards Davenport Ave is full of potholes. Basically the right lane is not drivable and drivers have to merge into the left lane.,1526533,41.3037961896,-72.936690792,0,An anonymous SeeClickFix user,Registered User,http://bit.ly/1ECvPFg,Acknowledged,Potholes,2015-03-12T09:16:13
204,2015-03-12T09:16:13,"100 Park Street New Haven, Connecticut",,2015-03-12T08:41:14,The right lane is full of potholes.,1526527,41.3065686746,-72.935317501,0,An anonymous SeeClickFix user,Registered User,http://bit.ly/1ECvxhD,Acknowledged,Potholes,2015-03-12T09:16:13
205,2015-03-12T09:16:13,"Townsend St New Haven, Connecticut",,2015-03-12T08:38:34,I am a visiting nurse and have to go through Townsend st in New Haven and the condition of this street is horrible.  This street is covered by huge potholes that are impossible to avoid. I believe it is unsafe and damaging to our vehicles. Please help us fix this issue.,1526518,41.3208804,-72.935232,984693,Agonzalez33,Registered User,http://bit.ly/1ECv8vx,Acknowledged,Potholes,2015-03-12T13:51:57
206,2015-03-12T09:00:50,"612 Chapel Street New Haven, Connecticut",,2015-03-12T08:35:00,City buses rushing by are causing the house to jump and shake. This needs to be fixed ASAP.,1526509,41.303562,-72.919563,0,S,Registered User,http://bit.ly/1ECuBd0,Acknowledged,Potholes on chapel,2015-03-16T12:57:02
207,2015-03-12T09:00:50,"Winchester Ave New Haven, CT",,2015-03-12T08:32:24,"potholes all the way down Winchester Avenue, but especially by Albertus and right past Webster street towards Yale construction.",1526503,41.3255709,-72.9277228,0,N/a,Registered User,http://bit.ly/1ECugav,Acknowledged,Numerous potholes on Winchester Ave.,2015-03-12T11:40:45
208,2015-03-12T09:00:50,"672 Congress Avenue New Haven, Connecticut",,2015-03-12T08:30:42,Dewitt St. Right off of Howard Ave,1526498,41.299694,-72.94016,0,Rose,Registered User,http://bit.ly/1ECtWIK,Acknowledged,"2 large pot holes, but to avoid practically hit parked cars. ",2015-03-12T09:00:51
209,2015-03-12T09:00:51,"Clinton Ave new haven, Connecticut",,2015-03-12T08:27:21,"at the beginning of Clinton Ave in Fairhaven ct, there are multiple massive potholes and divits that really need to be fixed. They streatch up the road past Clinton Ave school. They are doing a job on everyones car. ",1526491,41.3158183,-72.8920363,0,caitlin,Registered User,http://bit.ly/1ECtw53,Acknowledged,please fix,2015-03-16T13:06:03
210,2015-03-12T09:00:51,"Ramsdell Street New Haven, CT",,2015-03-12T08:23:13,Deep holes from 43 ramsdell street and throughout the whole street cars are swerving to try to avoid them,1526481,41.3305259,-72.9775413,0,Canetta,Registered User,http://bit.ly/1ECsVjL,Acknowledged,numerous deep holes ,2015-03-12T10:33:31
211,2015-03-12T09:00:51,"Judson Ave New Haven, Connecticut",,2015-03-12T08:17:52,There are numerous deep wide pothole allup and down judson ave especially in the middle please this needs to be fixed,1526472,41.3082012,-72.9506049,984700,candice burton,Registered User,http://bit.ly/1ECsd6b,Acknowledged,Potholes,2015-03-13T15:21:25
212,2015-03-12T09:00:51,"Knollwood Drive New Haven, Connecticut",,2015-03-12T08:15:36,"There is a very large, very deep pothole as you are turning the corner on Knollwood Drive as you are approaching the top of the hill; it is right around the bend so it is almost impossible for cars to see it and to avoid or slow down in time. ",1526468,41.3224866,-72.9746376,984699,Rebecca C.,Registered User,http://bit.ly/1ECrRfQ,Acknowledged,Potholes,2015-03-12T09:45:40
213,2015-03-12T08:16:11,"Orange Street Between Bishop And Humphrey New Haven, CT",,2015-03-12T07:39:54,,1526424,41.308274,-72.9278835,0,JT,Registered User,http://bit.ly/1Gvisnr,Acknowledged,Potholes all over Orange Street,2015-03-12T11:48:01
214,2015-03-12T08:16:12,"Franklin Street New Haven, CT",2015-03-20T14:38:35,2015-03-12T06:54:09,"Several deep potholes and
Sever water pooling on franklin street as you drive to the entrance on i95",1526372,41.3027317,-72.9146343,0,Joe,Registered User,http://bit.ly/1Fe5gFj,Open,Several deep potholes ,2015-03-20T18:52:49
215,2015-03-12T08:16:13,"393 Blatchley Avenue New Haven, Connecticut",,2015-03-12T06:39:36,From Willow St. down until Blatchley Ave and Chaple St. is very bumpy and some potholes are very deep. As days go by and the potholes are getting worse and worse. ,1526302,41.3132139594,-72.9002413889,984544,RudyT,Registered User,http://bit.ly/1Fe30Op,Acknowledged,Potholes,2015-03-16T13:08:14
216,2015-03-12T08:16:13,"Huntington Street And Winchester Avenue New Haven, CT",,2015-03-12T06:33:56,The whole street of Winchester from Bassett Street to Cave Street and beyond. ,1526296,41.3315033,-72.9254903,0,Darlene Walden,Registered User,http://bit.ly/1Fe1Z99,Acknowledged,Deep Potholes,2015-03-12T08:16:13
217,2015-03-12T08:16:13,"142 Cranston St  New Haven, CT",,2015-03-12T06:31:00,Many potholes on street,1526292,41.3317975,-72.8706021,0,Bobby v,Registered User,http://bit.ly/1Fe1wDR,Acknowledged,potholes,2015-03-12T08:16:13
218,2015-03-12T08:16:13,"Broadway New Haven, CT",,2015-03-12T05:48:45,large hole in ground ,1526277,41.3118606,-72.9312101,0,news8,Registered User,http://bit.ly/1FdU9wg,Acknowledged,Pothole,2015-03-12T17:18:19
219,2015-03-12T08:16:13,"Broadway New Haven, Connecticut",,2015-03-12T04:10:32,Large Pothole ,1526270,41.3118606,-72.9312101,0,News8,Registered User,http://bit.ly/1MtAloM,Acknowledged,Pothole,2015-03-12T08:16:13
220,2015-03-12T09:00:51,"78 Concord St. New Haven, Connecticut",,2015-03-11T22:45:49,Concord St. is one big pothole.,1526138,41.260687,-72.892633,0,potholeproblem,Registered User,http://bit.ly/1Bt4rHo,Acknowledged,Potholes,2015-03-12T09:00:52
221,2015-03-12T09:00:52,"167 Concord St. New Haven, Connecticut",,2015-03-11T22:23:41,Popped tire and rim damage due to this huge pothole.,1526118,41.2627567,-72.8923059,0,An anonymous SeeClickFix user,Registered User,http://bit.ly/1Bt02UE,Acknowledged,Huge Pothole.,2015-03-12T09:00:52
222,2015-03-12T09:00:52,"203 Concord St New Haven, Connecticut",,2015-03-11T22:10:03,Over 100 Potholes on Concord St.,1526094,41.2633832,-72.8926697,0,An anonymous SeeClickFix user,Registered User,http://bit.ly/1BsXo1b,Acknowledged,Huge Hole,2015-03-12T09:00:52
223,2015-03-12T09:00:52,"Blatchery And Lombard New Haven, Connecticut",,2015-03-11T22:08:38,Blatchery Ave between Lombard and State road  has many potholes. ,1526092,41.308274,-72.9278835,102106,XYZ,Registered User,http://bit.ly/1BsXbv5,Acknowledged,Potholes,2015-03-12T09:00:52
224,2015-03-12T09:00:52,"157 Concord St. New Haven, Connecticut",,2015-03-11T22:04:08,,1526090,41.2623182,-72.892172,0,An anonymous SeeClickFix user,Registered User,http://bit.ly/1BsWgLc,Acknowledged,Bad Potholes,2015-03-12T09:00:52
225,2015-03-12T09:00:52,"354 Concord St. New Haven, Connecticut",,2015-03-11T22:00:02,Potholes are so bad on all of concord st.,1526086,41.2672629,-72.8941826,0,An anonymous SeeClickFix user,Registered User,http://bit.ly/1BsVhdY,Acknowledged,Huge Potholes,2015-03-12T09:02:12
226,2015-03-12T09:00:52,"195 Concord St. New Haven, Connecticut",,2015-03-11T21:55:36,,1526081,41.2632267,-72.8925783,0,An anonymous SeeClickFix user,Registered User,http://bit.ly/1BsUk5l,Acknowledged,Deep Crater,2015-03-12T09:00:52
227,2015-03-12T09:00:53,"492 Blatchley Avenue New Haven, Connecticut",,2015-03-11T20:50:13,Very bad asphalt surface! Bumpy.,1525934,41.3157803459,-72.9009402035,983744,NH resident,Registered User,http://bit.ly/1BsHggd,Acknowledged,Potholes,2015-03-16T13:10:28
228,2015-03-12T09:00:53,"900 Chapel Street New Haven, Connecticut",,2015-03-11T18:35:48,"As you can clearly see from the attached photo, the entire city now has become one massive pothole. I'm thinking we should just get out--while we still can!",1525680,41.3061427,-72.9267164,2974,christopher schaefer,Registered User,http://bit.ly/1E6LxDt,Acknowledged,Entire City has become one massive pothole!,2015-03-12T14:01:15
229,2015-03-12T09:00:53,"158 Hall St New Haven, Connecticut",,2015-03-11T17:58:16,"Large potholes near the driveway of 158 hall at new haven, off of Townsend ave",1525586,41.272442,-72.890904,0,An anonymous SeeClickFix user,Registered User,http://bit.ly/1EZoCxE,Acknowledged,Potholes,2015-03-12T09:00:53
230,2015-03-12T09:00:53,"537 Orange Street New Haven, Connecticut",,2015-03-11T17:48:45,Two large potholes northwest side Orange street near intersection Clark/Orange,1525563,41.3150304722,-72.9170355643,397405,richtherrn,Registered User,http://bit.ly/1EZlOAz,Acknowledged,Potholes,2015-03-12T09:00:53
231,2015-03-12T09:16:14,"425 Blake Street New Haven, CT 06515, USA",,2015-03-11T17:44:41,At the corner of Blake and Stone Street at corner on right side of street,1525550,41.3285560608,-72.9572753906,983317,Brenda McGowan,Registered User,http://bit.ly/1EZkKwF,Acknowledged,Potholes,2015-03-12T09:16:14
232,2015-03-12T09:16:14,"Hamilton Street New Haven, CT",,2015-03-11T17:41:02,There are my multiple potholes in the street on Hamilton Street driving towards the highway entrance ramp and Church on the Rock.,1525547,41.3041627,-72.9128678,0,Concerned Citizen,Registered User,http://bit.ly/1EZjKsi,Acknowledged,Potholes and bumpy driving conditions,2015-03-13T15:39:44
233,2015-03-12T09:16:14,"East Street  New Haven, CT",,2015-03-11T17:38:48,There are multiple potholes and an extremely bumpy surface on East Street in New Haven. The street is in bad condition right past Jocelyn Square Park.,1525544,41.308893,-72.9098058,0,Concerned Citizen,Registered User,http://bit.ly/1EZj5ad,Acknowledged,Multiple potholes and bumpy surfaces,2015-03-12T09:16:14
234,2015-03-12T09:16:14,"Grand Avenue And Hamilton Street New Haven, CT",,2015-03-11T17:36:44,There is a large pothole in the street right before thr intersection of Grand Avenue ad Hamilton Street in New Haven. Right passed Ferraros Food Store.,1525541,41.3085156,-72.9123481,0,Concerned citizen,Registered User,http://bit.ly/1EZiuFu,Acknowledged,Large Pothole,2015-03-12T09:16:14
235,2015-03-12T09:16:15,"53 Pearl St New Haven, Connecticut",,2015-03-11T16:58:22,Picture speaks for itself,1525485,41.313987,-72.915453,36163,Lisa,Registered User,http://bit.ly/1EZ8dcs,Acknowledged,Potholes,2015-03-12T09:16:15
236,2015-03-12T09:16:15,"Dwight Street Between Goergr Street And No. Frontage Road New Haven, Connecticut",,2015-03-11T16:57:41,"Damage, loud squeeky under my car. I park in the 2 Howe Street Garage. Working for Yale New Haven Healthcare at 2 Howe Street.

",1525483,41.3044978348,-72.9553398724,0,judy m. brooks-seays,Registered User,http://bit.ly/1EZ860z,Acknowledged,Potholes,2015-03-12T09:16:15
237,2015-03-12T09:16:15,"519 Orange St New Haven, Connecticut",,2015-03-11T16:56:47,This is actually on Pearl st near Orange,1525481,41.314537,-72.9172114,36163,Lisa,Registered User,http://bit.ly/1EZ7SGM,Acknowledged,Potholes,2015-03-12T09:16:15
238,2015-03-11T15:55:04,"Canner Street New Haven, Connecticut",,2015-03-11T14:49:46,Bumpy mess. Also cars parked on both sides of snowy street make it one lane. One lane over pot holes. not good. It is made much worse by the fact that most of the street doesn't have the double yellow line painted on it and people drive all over the road. Can't or won't stay on their side of the road. Dangerous!,1525123,41.3241841,-72.9147058,0,An anonymous SeeClickFix user,Registered User,http://bit.ly/1EYyTu2,Acknowledged,Potholes,2015-03-11T17:50:14
239,2015-03-12T09:16:15,"Willow Strret New Haven, Connecticut",,2015-03-11T14:44:24,The entire street is a mess with many pot holes but the worst I've seen is in front of the Shell gas station. Please fix ASAP! Dangerous. ,1525102,41.3208174,-72.9088516,0,An anonymous SeeClickFix user,Registered User,http://bit.ly/1EYxvYk,Acknowledged,Potholes,2015-03-12T09:16:15
240,2015-03-12T10:18:39,"759-763 Orange St New Haven, Connecticut",,2015-03-11T14:23:00,There are potholes along this seam. At Orange and Cottage. ,1525012,41.3211165,-72.9124252,429649,Aly,Registered User,http://bit.ly/1EYsezQ,Acknowledged,Potholes along seam ,2015-03-12T10:18:39
241,2015-03-11T15:29:26,"Potholes Corner Of George St And Washington Ave West Haven, CT",,2015-03-11T13:04:14,Large potholes at the corner of George St and Washington Ave,1524760,41.2963582,-72.9370985,0,Homeowner,Registered User,http://bit.ly/1EY65Sp,Acknowledged,Potholes,2015-03-11T15:29:26
242,2015-03-12T10:18:40,"Willow Street New Haven, Connecticut",,2015-03-11T11:47:25,"Pot hole located between orange street and whitney, an enormous, deep hole damaged rim and tire",1524240,41.3208174,-72.9088516,6774,Department of Public Works,Verified Official,http://bit.ly/1BwQ5o3,Acknowledged,Potholes,2015-03-12T10:18:40
243,2015-03-11T12:41:25,"Goumet Heaven Whitney Avenue, Downtown, New Haven, New Haven County, Connecticut, 06518, United States of America",,2015-03-11T11:43:10,There's a large pothole in front of Pearce Real Estate on Whitney Ave. It goes down several layers of road.,1524225,41.3113770176,-72.9223186139,0,An anonymous SeeClickFix user,Registered User,http://bit.ly/1BwPkLM,Acknowledged,Potholes,2015-03-11T17:51:40
244,2015-03-11T12:39:32,"Livingston Street And Cold Spring Street  New Haven, Connecticut",,2015-03-11T11:27:39,Resident reports potholes at this intersection. Please send someone to patch them as soon as possible.,1524198,41.3253305,-72.9127302,6774,Department of Public Works,Verified Official,http://bit.ly/1BwM7Ma,Acknowledged,Potholes,2015-03-11T12:39:32
245,2015-03-11T12:34:08,"118 Judson Avenue  New Haven, Connecticut",,2015-03-11T10:45:48,Resident reports potholes in front of this location. Please patch it as soon as possible.,1524099,41.3080907761,-72.9525183558,6774,Department of Public Works,Verified Official,http://bit.ly/1NJR5f5,Acknowledged,Potholes,2015-03-11T12:34:08
246,2015-03-12T10:18:40,"Townsend Ave New Haven, Connecticut",,2015-03-11T09:54:04,"A huge foot long hole, maybe 4 inches deep. ",1523899,41.2909847469,-72.8920601772,0,An anonymous SeeClickFix user,Registered User,http://bit.ly/1GrsUMP,Acknowledged,Potholes,2015-03-12T13:01:22
247,2015-03-11T11:03:01,"220 Foxon Hill Road New Haven, Connecticut",2015-04-09T12:19:45,2015-03-11T09:15:05,Very deep pothole in the corner of Foxon Hill Road and Quinnipiac Ave. Its hard to see at night and early in the morning. Theres no other way around to avoid the pothole because the other side of the street has incoming traffic. ,1523809,41.3313241733,-72.8675171981,0,An anonymous SeeClickFix user,Registered User,http://bit.ly/1Grk2qA,Closed,Potholes,2015-04-09T12:19:45
248,2015-03-11T07:49:13,"Edgewood Ave Elm st, Orchard St, Henry at all have crater size potholes that need to be fixed PLEASE, New Haven, CT",2015-03-10T21:52:52,2015-03-10T21:01:29,"they are too big to avoid, and I've almost seen and been involved in collisions. One on Orchard was so deep that if its not fixed soon someone is going to get stuck. Please fix the potholes on Edgewood Ave, Elm street, orchard at, Henry street. Thanks in advance",1522658,41.308274,-72.9278835,0,Don't want to buy new tires,Registered User,http://bit.ly/1BuO1gp,Acknowledged,Crater size potholes all over town,2015-03-13T15:01:29
249,2015-03-11T07:49:13,"56-98 Parmelee Avenue New Haven, Connecticut",,2015-03-10T20:24:18,hub cap size potholes throughout Parmelee ave. ,1522576,41.3069659,-72.9512204,0,Stylene ,Registered User,http://bit.ly/1BuI96H,Acknowledged,zig zag,2015-03-12T09:33:20
250,2015-03-11T07:49:14,"Judson Ave New Haven, CT",,2015-03-10T19:59:57,it is nearly impossible to drive down the street without hitting at least 3 potholes which are very deep.  The entire street from one end to other.,1522530,41.3082012,-72.9506049,0,costly travel,Registered User,http://bit.ly/1BuDCBj,Acknowledged,Judson Ave impassable do to potholes,2015-03-13T23:37:23
251,2015-03-11T07:49:14,"44 Winchester Avenue New Haven, CT",,2015-03-10T19:27:12,Several deep potholes.  Water being retained and splashing everywhere when cars hit them.,1522442,41.316987,-72.927238,0,Potholes,Registered User,http://bit.ly/1BuxYyV,Acknowledged,Potholes,2015-03-11T07:49:14
252,2015-03-11T07:49:14,"Fairfield St Between Glenview Terrace And Davis St New Haven, Connecticut",,2015-03-10T18:52:22,On Fairfield St. Between Glenview Terrace and Davis St. are a lot of holes where people have to swerve into on coming traffic lane to avoid them. ,1522372,41.3294452,-72.9736351,0,Anonymous,Registered User,http://bit.ly/1GCLvcm,Acknowledged,Really Bad pot holes,2015-03-11T10:13:31
253,2015-03-11T07:49:14,"Willow Street New Haven, Connecticut",,2015-03-10T18:39:04,The entire street is a giant pot hole! ,1522353,41.3208174,-72.9088516,0,An anonymous SeeClickFix user,Registered User,http://bit.ly/1GCJjl4,Acknowledged,Potholes,2015-03-11T07:49:14
254,2015-03-11T07:49:14,"East Rock Road  Between Whitney And Livingston new haven, CT",,2015-03-10T18:04:53,Very deep multiple holes in street,1522267,41.308274,-72.9278835,0,Mimi,Registered User,http://bit.ly/1GCE3Oh,Acknowledged,Potholes,2015-03-11T07:49:14
255,2015-03-11T07:49:15,"Peck Street New Haven, Connecticut",,2015-03-10T17:42:04,All of Peck street is horrible they need to do something,1522212,41.3163143,-72.8956154,0,Yazmin,Registered User,http://bit.ly/1GCAdoj,Acknowledged,horrible,2015-03-11T07:49:15
256,2015-03-11T07:49:15,"Middleton Ave  New Haven, CT",,2015-03-10T17:25:41,there are holes in the entire road from the time you turn on Middletown Ave till the time u get to the end of the road. Please fix immediately ,1522179,41.3349195,-72.8684404,0,An anonymous SeeClickFix user,Registered User,http://bit.ly/1GCxVWq,Acknowledged,Pot holes,2015-03-11T07:49:15
257,2015-03-10T12:49:59,"Edwards Street And State Street New Haven, Connecticut",,2015-03-09T19:28:55,Pretty good pothole that gets worse by the day.,1520380,41.3157204,-72.9095839,424,Martha,Registered User,http://bit.ly/1Gl5ZTl,Acknowledged,Potholes,2015-03-16T22:09:45
258,2015-03-10T12:48:50,"120 Edwards Street New Haven, Connecticut",,2015-03-09T19:26:30,A triple threat of potholes stretching across what looks like an old utility patch and making it impossible to miss for east bound traffic.,1520369,41.3174563,-72.9135781,424,Martha,Registered User,http://bit.ly/1Gl5EQA,Acknowledged,Potholes,2015-03-10T12:48:51
259,2015-03-11T07:53:08,"151 Willow Street New Haven, Connecticut",,2015-03-09T17:36:16,Numerous potholes on willow street from Whitney avenue to state street,1520209,41.3209696453,-72.9090082882,0,An anonymous SeeClickFix user,Registered User,http://bit.ly/1AXMnA8,Acknowledged,Potholes,2015-03-11T07:53:08
260,2015-03-09T18:03:04,"Mead St New Haven, Connecticut",,2015-03-09T14:16:58,the whole street has bad potholes,1519826,41.3092733,-72.9508449,0,An anonymous SeeClickFix user,Registered User,http://bit.ly/1F3XfTx,Acknowledged,Potholes,2015-03-09T18:03:04
261,2015-03-11T07:53:08,"Willow Street And Whitney Avenue  New Haven, Connecticut",,2015-03-09T14:06:31,"Resident reports potholes on Willow Street, from Whitney Avenue to State Street. No specific locations were given. Please locate and patch them as soon as possible.",1519801,41.3238221,-72.9168903,6774,Department of Public Works,Verified Official,http://bit.ly/1F3UW2T,Acknowledged,Potholes,2015-03-12T08:28:55
262,2015-03-09T18:00:13,"163 Burwell Street New Haven, Connecticut",2015-03-17T17:31:06,2015-03-09T13:47:45,there is a large and continuously expanding pothole directly in front of the driveway of 163 Burwell Street.,1519766,41.294134,-72.887877,0,BShepard,Registered User,http://bit.ly/1F3PVqM,Open,pot hole,2015-03-24T15:16:37
263,2015-03-09T11:57:10,"Eastern Street And Foxon Blvd.  New Haven, Connecticut",2015-04-09T12:16:52,2015-03-09T11:35:43,Resident reports potholes at this location. Please send someone to patch them as soon as possible.,1519372,41.3201637,-72.8717476,6774,Department of Public Works,Verified Official,http://bit.ly/1E1dc8J,Closed,Potholes,2015-04-09T12:16:52
264,2015-03-09T11:57:10,"Winchester Avenue And Cave Street  New Haven, Connecticut",,2015-03-09T11:33:27,Resident reports potholes in the vicinity of this intersection. Please patch them as soon as possible.,1519357,41.3328512,-72.924977,6774,Department of Public Works,Verified Official,http://bit.ly/1E1d210,Acknowledged,Potholes,2015-03-09T18:32:11
265,2015-03-09T11:57:10,"Essex Street And Quinnipiac Avenue  New Haven, Connecticut",,2015-03-09T11:29:58,There are potholes lining the entire stretch of Essex Street. Please send a crew to this location to patch them,1519329,41.3173587,-72.8763134,6774,Department of Public Works,Verified Official,http://bit.ly/1E1cFUc,Acknowledged,Potholes,2015-03-12T20:37:25
266,2015-03-09T11:57:11,"Hemminway Street New Haven, Connecticut",,2015-03-09T11:15:10,"Large pothole, looks like the street is cave in",1519250,41.3139264,-72.8762021,6774,Department of Public Works,Verified Official,http://bit.ly/1E1bjc5,Acknowledged,Potholes,2015-03-11T11:13:22
267,2015-03-09T11:57:11,"Winchester Avenue And Bassett Street  New Haven, Connecticut",,2015-03-09T11:08:35,"Resident reports large potholes on Winchester, near the intersection with Bassett Street. Please patch them as soon as possible.",1519217,41.3306244,-72.925824,6774,Department of Public Works,Verified Official,http://bit.ly/1E1aHmJ,Acknowledged,Potholes,2015-03-09T11:57:11
268,2015-03-09T11:57:11,"Warwick & Lexington Ave New Haven, Connecticut",,2015-03-09T11:04:00,Wide deep pot holes,1519188,41.3034787,-72.8859583,6774,Department of Public Works,Verified Official,http://bit.ly/1E1agZQ,Acknowledged,Potholes,2015-03-09T11:57:11
269,2015-03-09T11:57:11,"Arrington And Townsend 'Ave New Haven, Connecticut",,2015-03-09T11:03:27,Many wide and deep holes on street,1519187,41.2741667,-72.896459,6774,Department of Public Works,Verified Official,http://bit.ly/1E1af86,Acknowledged,Potholes,2015-03-09T19:54:43
270,2015-03-09T10:51:21,"Willow Street New Haven, Connecticut",,2015-03-09T10:31:12,There are MULTIPLE deep potholes on Willow Street between Whitney Avenue and the entrance to 91.  They are very bad and most of the time unavoidable because of traffic going the opposite side or snow banks/cars on the road!  ,1519102,41.3208174,-72.9088516,0,An anonymous SeeClickFix user,Registered User,http://bit.ly/1E17JyB,Acknowledged,Potholes,2015-03-09T10:51:21
271,2015-03-09T09:48:31,"703 Whitney Avenue New Haven, Connecticut",,2015-03-07T15:23:42,"A sink hole is forming near the intersection of Huntington St. and Whitney Avenue, in front of the Red Cross building. ",1517466,41.329608184,-72.9141765148,148609,AB,Registered User,http://bit.ly/1x4BCvv,Acknowledged,Sink hole forming,2015-03-09T12:10:10
272,2015-03-06T14:52:49,"85 Willow Street New Haven, Connecticut",,2015-03-06T10:45:49,"Resident reports a string of potholes on Willow Street, between Mitchell Drive and Nicoll Street. Please patch them as soon as possible.",1515731,41.3201895776,-72.9070999492,6774,Department of Public Works,Verified Official,http://bit.ly/1MeREeZ,Acknowledged,Potholes,2015-03-07T20:53:19
273,2015-03-06T14:52:49,"117 Lexington Avenue  New Haven, Connecticut",,2015-03-06T10:44:31,Resident reports a very large pothole in front of this location. Please patch it as soon as possible.,1515729,41.300936,-72.886836,6774,Department of Public Works,Verified Official,http://bit.ly/1MeRvZa,Acknowledged,Potholes,2015-03-06T14:52:49
274,2015-03-06T14:52:50,"115 Burwell Street  New Haven, Connecticut",,2015-03-06T10:43:06,There is a very large pothole in front of this location. Pothole is causing damage to passing vehicles. Please patch it as soon as possible.,1515722,41.293133,-72.889159,6774,Department of Public Works,Verified Official,http://bit.ly/1MeRdRS,Acknowledged,Potholes,2015-03-06T14:52:50
275,2015-03-06T14:52:50,"87 Warwick Street  New Haven, Connecticut",,2015-03-06T10:42:14,Resident reports a massive pothole in front of 87 Warwick Street. Please send a crew to patch it as soon as possible.,1515720,41.29636,-72.887925,6774,Department of Public Works,Verified Official,http://bit.ly/1MeR5lv,Acknowledged,Potholes,2015-03-06T14:52:50
276,2015-03-06T14:52:50,"40-44 Winchester Avenue New Haven, CT 06511, USA",2015-03-16T10:30:39,2015-03-05T15:49:14,,1514852,41.3169838613,-72.9268409213,2,Ben,Admin,http://bit.ly/1GopZru,Open,Potholes,2015-03-18T08:24:56
277,2015-03-06T14:52:50,"99  Wwarwick Street New Haven, Connecticut",,2015-03-05T14:00:00,Large Hole in  front of the Milford Barrel Company.,1514638,41.296048,-72.887579,0,An anonymous SeeClickFix user,Registered User,http://bit.ly/1Gob28U,Acknowledged,Potholes,2015-03-06T14:59:38
278,2015-03-06T14:52:51,"141 Willow Street  New Haven, Connecticut",,2015-03-05T11:44:04,There are massive potholes at this location. Please send someone to patch them as soon as possible.,1514391,41.3207316,-72.9078307,6774,Department of Public Works,Verified Official,http://bit.ly/1DQ0VDV,Acknowledged,Potholes,2015-03-06T14:52:51
279,2015-03-05T10:06:31,"Willow St New Haven, Connecticut",,2015-03-05T09:59:46,"Dear neighbour, Willow st,  between Livingston and Whitney is a mess, we made so-many complains that it is no sense to complain again,  the mayor of New Haven do not read these messages or do not care about Willow st.
However, I just find-out, if your car break something in those deep potholes, call the police make report and somebody will be responsible to pay the bill, we pay taxes to use roads. ",1514143,41.3234602446,-72.9156965974,0,An anonymous SeeClickFix user,Registered User,,Acknowledged,Potholes,2015-03-06T20:58:12
280,2015-03-05T07:35:14,"541 Chapel Street New Haven, Connecticut",2015-03-16T10:08:38,2015-03-04T18:03:54,"A three foot wide 11"" pothole has developed in front of 541 Chapel Street.

This pothole has developed in a very bad patching job that was made to repair damage from a major sewer-line collapse under Chapel Street at 541 Chapel Street a few years ago.

Traffic along Chapel Street is very fast, far exceeding the 25 MPH limit posted, and the City buses, trash trucks, Public Works trucks, UPS and FedEx delivery vans and trucks and insane drivers of private vehicles have dug a deep hole for themselves.

This is a particularly dangerous pothole and should be filled in immediately, the right way this time.",1513184,41.3039243,-72.9168211,0,wearyofwinter,Registered User,,Open,Potholes,2015-03-16T14:34:43
281,2015-03-05T07:34:50,"148 Nicoll Street new haven, Connecticut",,2015-03-04T17:44:46,Willow Street is so dangerous to drive on I always take an alternate route even though I have a four-wheel-drive off-road truck. please fix this.,1513147,41.3192705,-72.9093818,968815,Rei Dunn,Registered User,,Acknowledged,Potholes,2015-03-05T21:33:46
282,2015-03-04T16:13:14,"22-42 Humphrey Street New Haven, Connecticut",,2015-03-04T15:26:45,The potholes under the bridge are an absolute disaster here and need to be fixed! I just got a flat tire from driving here.,1512857,41.3139506468,-72.9047403182,0,An anonymous SeeClickFix user,Registered User,http://bit.ly/17RxXuv,Acknowledged,Potholes,2015-03-04T16:13:14
